"id","code","name","miningSiteId","excavatorId","isActive","maxQueueSize","latitude","longitude","coalSeam","coalQuality","createdAt","updatedAt"
"cmhsbjlpj00xemafty94kudlk","LP-0001","Loading Point 1","cmhsbjl1200gtmaft1ubw7644",,true,4,-5.118905473114858,116.485155806714,"Seam-B1","{""sulfur"":0.2183046564602223,""calorie"":5642.912288193223,""moisture"":9.060205613904635,""ash_content"":7.051262624980845}","2025-11-09T23:02:33.127Z","2025-11-09T23:02:33.127Z"
"cmhsbjlpm00xgmaftq8x6lxxp","LP-0002","Loading Point 2","cmhsbjl1f00h0maft2huv3pkm",,true,5,-3.245840283312842,116.5621945547701,"Seam-A1","{""sulfur"":0.7329225130754631,""calorie"":5425.14824357382,""moisture"":19.04946189691763,""ash_content"":9.883795944924328}","2025-11-09T23:02:33.130Z","2025-11-09T23:02:33.130Z"
"cmhsbjlpo00ximaftlehikb1x","LP-0003","Loading Point 3","cmhsbjl1k00h4maftgx0bbbu9",,true,7,-2.509538771219145,115.7126626361901,"Seam-C1","{""sulfur"":0.3978285133499635,""calorie"":5049.311261092464,""moisture"":15.89267665656494,""ash_content"":4.902529622157214}","2025-11-09T23:02:33.133Z","2025-11-09T23:02:33.133Z"
"cmhsbjlpq00xkmaftyjbafjsb","LP-0004","Loading Point 4","cmhsbjl2000hgmaftuyyvbplz",,true,6,-4.548884160308319,116.547969636483,"Seam-C1","{""sulfur"":0.2985092818038025,""calorie"":4569.077397774887,""moisture"":10.27508213189873,""ash_content"":9.651462674760932}","2025-11-09T23:02:33.135Z","2025-11-09T23:02:33.135Z"
"cmhsbjlps00xmmaftt8r1um20","LP-0005","Loading Point 5","cmhsbjl2p00hymaft49un52lz",,true,7,-4.754583839901576,116.8110150987777,"Seam-D","{""sulfur"":0.6897904593146802,""calorie"":5296.613249426828,""moisture"":8.197135137155994,""ash_content"":9.194778218002105}","2025-11-09T23:02:33.136Z","2025-11-09T23:02:33.136Z"
"cmhsbjlpu00xomafttdnmrkfs","LP-0006","Loading Point 6","cmhsbjl2t00i1maft001104sc",,true,4,-4.219304887465098,115.0728636742419,"Seam-C1","{""sulfur"":0.3525381039152853,""calorie"":5959.46312536656,""moisture"":18.16527802898978,""ash_content"":11.86766972072682}","2025-11-09T23:02:33.138Z","2025-11-09T23:02:33.138Z"
"cmhsbjlpv00xqmaft9thiboob","LP-0007","Loading Point 7","cmhsbjl3000i6maftbwryncan",,true,6,-3.845417610060489,115.1993974187988,"Seam-A1","{""sulfur"":0.7293963445187743,""calorie"":5116.370205241667,""moisture"":16.48216416798341,""ash_content"":10.53526077300518}","2025-11-09T23:02:33.140Z","2025-11-09T23:02:33.140Z"
"cmhsbjlpx00xsmaftfb7h861x","LP-0008","Loading Point 8","cmhsbjl3100i7maft7uyztqkh",,true,9,-5.11699593086493,119.2387331052471,"Seam-B2","{""sulfur"":0.4345623801402235,""calorie"":5953.795965535823,""moisture"":9.693229375337648,""ash_content"":6.989790133216738}","2025-11-09T23:02:33.141Z","2025-11-09T23:02:33.141Z"
"cmhsbjlpy00xumaft2ym0513o","LP-0009","Loading Point 9","cmhsbjl3400i9maftjjbg1dsl",,true,7,-5.454658393601842,116.6678357940042,"Seam-B2","{""sulfur"":0.3522139053164152,""calorie"":5073.070633839777,""moisture"":8.167655596105448,""ash_content"":8.093021789543977}","2025-11-09T23:02:33.143Z","2025-11-09T23:02:33.143Z"
"cmhsbjlq000xwmaftvopp6ksu","LP-0010","Loading Point 10","cmhsbjl3o00iomafti6ytkd5z",,true,9,-4.257237048662564,119.7422390999074,"Seam-C1","{""sulfur"":0.3824076145502407,""calorie"":5015.649215519595,""moisture"":19.99941624782552,""ash_content"":6.979209530015179}","2025-11-09T23:02:33.144Z","2025-11-09T23:02:33.144Z"
"cmhsbjlq100xymaftxcdck91j","LP-0011","Loading Point 11","cmhsbjl3r00iqmaft9rpm9lx2",,true,3,-5.090435302300402,116.8334015535398,"Seam-B2","{""sulfur"":0.601729876253337,""calorie"":5010.717497634334,""moisture"":9.454400355194439,""ash_content"":5.931960984921092}","2025-11-09T23:02:33.146Z","2025-11-09T23:02:33.146Z"
"cmhsbjlq300y0maftxg2k1fky","LP-0012","Loading Point 12","cmhsbjl3v00itmaft6cjod7he",,true,7,-5.325797915517096,117.9461841577723,"Seam-B1","{""sulfur"":0.5509247992585905,""calorie"":5990.532754208824,""moisture"":18.16181909977639,""ash_content"":5.24952005423699}","2025-11-09T23:02:33.147Z","2025-11-09T23:02:33.147Z"
"cmhsbjlq400y2maft08sv8oqk","LP-0013","Loading Point 13","cmhsbjl4a00j4maftmdl364la",,true,3,-3.06088741111511,118.5630284276923,"Seam-C1","{""sulfur"":0.2707477885469028,""calorie"":5964.320703942345,""moisture"":16.08404862118322,""ash_content"":5.051050473011715}","2025-11-09T23:02:33.149Z","2025-11-09T23:02:33.149Z"
"cmhsbjlq600y4maftdk7sbeeh","LP-0014","Loading Point 14","cmhsbjl4m00jcmaft72mluut9",,true,7,-3.121036498866193,120.0048414996372,"Seam-B1","{""sulfur"":0.787548409105532,""calorie"":5481.865564881481,""moisture"":15.22035946999428,""ash_content"":7.795973534801218}","2025-11-09T23:02:33.151Z","2025-11-09T23:02:33.151Z"
"cmhsbjlq800y6maft9seqy59a","LP-0015","Loading Point 15","cmhsbjl4p00jemaft9i2n2wf7",,true,6,-2.918498439915268,117.4402703343494,"Seam-C2","{""sulfur"":0.6820183902058585,""calorie"":5558.647554224054,""moisture"":19.35890741271563,""ash_content"":11.60378420169663}","2025-11-09T23:02:33.153Z","2025-11-09T23:02:33.153Z"
"cmhsbjlqa00y8maft28empg17","LP-0016","Loading Point 16","cmhsbjl4y00jkmaft0f8g3wll",,true,5,-2.894417146124915,117.9230308952186,"Seam-A2","{""sulfur"":0.3684186084270656,""calorie"":4616.713759927776,""moisture"":17.67397128143441,""ash_content"":8.857044982127576}","2025-11-09T23:02:33.154Z","2025-11-09T23:02:33.154Z"
"cmhsbjlqb00yamaftjyyn4yns","LP-0017","Loading Point 17","cmhsbjl4z00jlmaftq1l7o9k6",,true,5,-4.3353759348412,118.910547800469,"Seam-C2","{""sulfur"":0.2804550896441531,""calorie"":5579.871678251031,""moisture"":13.61100156038045,""ash_content"":5.633606140249203}","2025-11-09T23:02:33.155Z","2025-11-09T23:02:33.155Z"
"cmhsbjlqc00ycmaftr7zmeap8","LP-0018","Loading Point 18","cmhsbjl5100jmmaftqhdvf3e1",,true,4,-4.924547651186404,119.9697658355909,"Seam-A2","{""sulfur"":0.3856187413762362,""calorie"":4923.221616067197,""moisture"":19.98873426890905,""ash_content"":4.940012452704472}","2025-11-09T23:02:33.157Z","2025-11-09T23:02:33.157Z"
"cmhsbjlqe00yemaftv9zrcbs5","LP-0019","Loading Point 19","cmhsbjl5a00jtmaftydrkrnme",,true,7,-2.526874294296894,115.7895029704854,"Seam-A2","{""sulfur"":0.3543107453586212,""calorie"":5278.379093273476,""moisture"":14.50813426421606,""ash_content"":6.612848166067019}","2025-11-09T23:02:33.158Z","2025-11-09T23:02:33.158Z"
"cmhsbjlqg00ygmaftu2xev107","LP-0020","Loading Point 20","cmhsbjl5n00k3maftfhfgbd4a",,true,9,-5.439806548774036,119.2561433136484,"Seam-B2","{""sulfur"":0.6417382435763721,""calorie"":5796.201253960989,""moisture"":9.614074319648182,""ash_content"":5.147945850517539}","2025-11-09T23:02:33.160Z","2025-11-09T23:02:33.160Z"
"cmhsbjlqh00yimaftgsycig9r","LP-0021","Loading Point 21","cmhsbjl5u00k8mafttr488qqf",,true,8,-2.983006571013935,118.1278781726782,"Seam-A2","{""sulfur"":0.2397473967911505,""calorie"":4608.101104471369,""moisture"":17.54700646389831,""ash_content"":11.02841071783906}","2025-11-09T23:02:33.161Z","2025-11-09T23:02:33.161Z"
"cmhsbjlqi00ykmaftttu23u5p","LP-0022","Loading Point 22","cmhsbjl5w00k9maft1a7a6lh4",,true,9,-3.878571568775297,117.5542352779077,"Seam-A1","{""sulfur"":0.7727387684201865,""calorie"":4924.621956331543,""moisture"":17.65655450828203,""ash_content"":11.24204035160779}","2025-11-09T23:02:33.163Z","2025-11-09T23:02:33.163Z"
"cmhsbjlqk00ymmaftcz09ak1v","LP-0023","Loading Point 23","cmhsbjl5y00kbmaftcc2w4o7l",,true,8,-4.155691709179356,115.0999694084925,"Seam-D","{""sulfur"":0.5777367112814237,""calorie"":5128.111744374042,""moisture"":14.01259004472921,""ash_content"":5.661808722995305}","2025-11-09T23:02:33.164Z","2025-11-09T23:02:33.164Z"
"cmhsbjlqm00yomaft3gjlrd4u","LP-0024","Loading Point 24","cmhsbjl6200kemaftlztwrepv",,true,8,-2.566838594062582,116.5854920940148,"Seam-A2","{""sulfur"":0.3641243979243686,""calorie"":4795.008308168949,""moisture"":19.21827943778301,""ash_content"":4.533594169863838}","2025-11-09T23:02:33.166Z","2025-11-09T23:02:33.166Z"
"cmhsbjlqo00yqmaft9s31k30g","LP-0025","Loading Point 25","cmhsbjl6300kfmaft2tfnuus0",,true,7,-4.86952676740744,119.9746093360807,"Seam-B2","{""sulfur"":0.6601101522024628,""calorie"":5505.940296807496,""moisture"":12.01212809610483,""ash_content"":6.118036861462082}","2025-11-09T23:02:33.168Z","2025-11-09T23:02:33.168Z"
"cmhsbjlqp00ysmafth1ssinze","LP-0026","Loading Point 26","cmhsbjl6e00kmmafto4599e0p",,true,7,-2.556248983396789,117.743440310536,"Seam-A2","{""sulfur"":0.6034675227063474,""calorie"":5675.112741359024,""moisture"":17.01741393466061,""ash_content"":6.641178390743475}","2025-11-09T23:02:33.170Z","2025-11-09T23:02:33.170Z"
"cmhsbjlqr00yumaftsmzjfr4r","LP-0027","Loading Point 27","cmhsbjl6k00krmaftpms3m5i0",,true,5,-4.274293468943199,116.5255175968573,"Seam-B2","{""sulfur"":0.546014020585628,""calorie"":5175.675405679951,""moisture"":12.88361987018393,""ash_content"":6.072938318937386}","2025-11-09T23:02:33.171Z","2025-11-09T23:02:33.171Z"
"cmhsbjlqs00ywmaft48hxu0zt","LP-0028","Loading Point 28","cmhsbjl7g00lfmaftat6c21hr",,true,6,-2.908276075819778,118.7667583358276,"Seam-A1","{""sulfur"":0.3737842953316985,""calorie"":5434.351880638007,""moisture"":15.72330958797484,""ash_content"":6.79748323983412}","2025-11-09T23:02:33.173Z","2025-11-09T23:02:33.173Z"
"cmhsbjlqu00yymaftu1h3bqu4","LP-0029","Loading Point 29","cmhsbjl7t00lomaftih016hyz",,true,3,-5.184891911158831,119.7145428219649,"Seam-A2","{""sulfur"":0.5472546070997815,""calorie"":4603.926580618187,""moisture"":10.92693147137425,""ash_content"":10.47448439818191}","2025-11-09T23:02:33.175Z","2025-11-09T23:02:33.175Z"
"cmhsbjlqw00z0mafttkc1ai6s","LP-0030","Loading Point 30","cmhsbjl7u00lpmaftra23t5ar",,true,9,-2.818971293782934,119.2744416518653,"Seam-C1","{""sulfur"":0.6459789603538891,""calorie"":4888.497669475867,""moisture"":14.17692142943693,""ash_content"":5.703175308105649}","2025-11-09T23:02:33.176Z","2025-11-09T23:02:33.176Z"
"cmhsbjlqx00z2maftsnzv03yj","LP-0031","Loading Point 31","cmhsbjl8j00m8maft2vjcqe37",,true,3,-3.825690210212288,116.4496743009023,"Seam-A1","{""sulfur"":0.4699196779407596,""calorie"":5236.443966173947,""moisture"":8.98716872954894,""ash_content"":8.602189933273733}","2025-11-09T23:02:33.178Z","2025-11-09T23:02:33.178Z"
"cmhsbjlqz00z4maftezy0jpax","LP-0032","Loading Point 32","cmhsbjl8u00mgmaftbc19zpnh",,true,6,-3.67234497065451,117.9280325507003,"Seam-B2","{""sulfur"":0.4920732735482353,""calorie"":4678.709159850946,""moisture"":12.49693024183837,""ash_content"":5.689679444486677}","2025-11-09T23:02:33.179Z","2025-11-09T23:02:33.179Z"
"cmhsbjlr100z6maftrebim24t","LP-0033","Loading Point 33","cmhsbjl8y00mjmaftlibsaesk",,true,7,-3.820483547981526,118.210301782996,"Seam-C2","{""sulfur"":0.7381147702626965,""calorie"":5759.974291039056,""moisture"":10.94866610357797,""ash_content"":5.738458026171537}","2025-11-09T23:02:33.181Z","2025-11-09T23:02:33.181Z"
"cmhsbjlr400z8maftbsn8w8cp","LP-0034","Loading Point 34","cmhsbjl9100mlmaftj6yft1yk",,true,5,-3.012128434612584,117.4431233941573,"Seam-C1","{""sulfur"":0.7062859112140554,""calorie"":5474.026194515741,""moisture"":8.598253811363907,""ash_content"":7.406926570282405}","2025-11-09T23:02:33.184Z","2025-11-09T23:02:33.184Z"
"cmhsbjlr500zamaftyzp69ry8","LP-0035","Loading Point 35","cmhsbjl9b00msmaftgxlkicxd",,true,9,-2.921457405576511,118.8980381957832,"Seam-A1","{""sulfur"":0.4225505260487493,""calorie"":5526.77365536557,""moisture"":19.6284139607641,""ash_content"":5.467456386796757}","2025-11-09T23:02:33.186Z","2025-11-09T23:02:33.186Z"
"cmhsbjlr700zcmaftxy4t99rw","LP-0036","Loading Point 36","cmhsbjl9c00mtmaft3m8mqlc0",,true,7,-4.823666275083331,115.2675807368332,"Seam-C2","{""sulfur"":0.2680151223720091,""calorie"":5654.920651156432,""moisture"":12.21500318799178,""ash_content"":8.412264419365046}","2025-11-09T23:02:33.187Z","2025-11-09T23:02:33.187Z"
"cmhsbjlr800zemaftyycuuo2d","LP-0037","Loading Point 37","cmhsbjl9p00n2maftcf7kkqjg",,true,7,-2.511282374498582,116.9616797661203,"Seam-B2","{""sulfur"":0.5696249419608584,""calorie"":4616.698435863804,""moisture"":11.29050742203763,""ash_content"":9.615511088885839}","2025-11-09T23:02:33.189Z","2025-11-09T23:02:33.189Z"
"cmhsbjlra00zgmaft0yh4qlb1","LP-0038","Loading Point 38","cmhsbjla500n7maftwppt822j",,true,8,-5.162524427644158,119.2230542285389,"Seam-B2","{""sulfur"":0.64433305322834,""calorie"":5056.591770616442,""moisture"":12.5476509214504,""ash_content"":9.628465197742335}","2025-11-09T23:02:33.190Z","2025-11-09T23:02:33.190Z"
"cmhsbjlrb00zimaftp8j4sfnz","LP-0039","Loading Point 39","cmhsbjlad00nbmaft0x99qpla",,true,7,-5.387779592667655,116.982513042917,"Seam-A1","{""sulfur"":0.613335254188593,""calorie"":5039.639146703115,""moisture"":13.94329963245007,""ash_content"":6.982152001121085}","2025-11-09T23:02:33.192Z","2025-11-09T23:02:33.192Z"
"cmhsbjlrd00zkmaftf9rtvy00","LP-0040","Loading Point 40","cmhsbjlag00ncmaftbeykzek2",,true,4,-3.944102499684883,116.2910516190501,"Seam-A1","{""sulfur"":0.2940928728129877,""calorie"":5464.962488103325,""moisture"":19.00237342823237,""ash_content"":5.78364612787154}","2025-11-09T23:02:33.193Z","2025-11-09T23:02:33.193Z"
"cmhsbjlre00zmmaft5f0xep13","LP-0041","Loading Point 41","cmhsbjlbu00nxmaft07seaad6",,true,6,-2.994416287821587,115.6366896511734,"Seam-A1","{""sulfur"":0.585537299381374,""calorie"":5762.856193414591,""moisture"":12.60418796290327,""ash_content"":7.390508324889247}","2025-11-09T23:02:33.195Z","2025-11-09T23:02:33.195Z"
"cmhsbjlrg00zomaftiqm41flo","LP-0042","Loading Point 42","cmhsbjlbw00nymaft2twuz2nh",,false,4,-5.455901637193068,115.6405966097277,"Seam-D","{""sulfur"":0.6268371312700023,""calorie"":5669.406272390911,""moisture"":8.05033733572101,""ash_content"":11.43988588261953}","2025-11-09T23:02:33.196Z","2025-11-09T23:02:33.196Z"
"cmhsbjlrh00zqmaftqo9m50xi","LP-0043","Loading Point 43","cmhsbjlcb00o4maftr5ljy2nf",,true,3,-3.81862180886239,118.7076708522212,"Seam-C1","{""sulfur"":0.7246981739741036,""calorie"":4695.629069211496,""moisture"":13.22977885072555,""ash_content"":10.63079579748097}","2025-11-09T23:02:33.198Z","2025-11-09T23:02:33.198Z"
"cmhsbjlrk00zsmafthwfisna7","LP-0044","Loading Point 44","cmhsbjlcy00ofmaftkaowi7k1",,false,7,-4.293323653135535,117.19343706217,"Seam-C1","{""sulfur"":0.5679433379101876,""calorie"":5872.065747541807,""moisture"":15.70331855629793,""ash_content"":10.00795143916304}","2025-11-09T23:02:33.200Z","2025-11-09T23:02:33.200Z"
"cmhsbjlrl00zumaft2lnom8d8","LP-0045","Loading Point 45","cmhsbjld400oimaft1bu6j357",,true,4,-3.492053873915703,115.5653405295777,"Seam-A1","{""sulfur"":0.3797260582866983,""calorie"":4750.074601349113,""moisture"":11.97727548692824,""ash_content"":4.400662572247834}","2025-11-09T23:02:33.202Z","2025-11-09T23:02:33.202Z"
"cmhsbjlrn00zwmaft2ld1085v","LP-0046","Loading Point 46","cmhsbjldd00ommaftp51hua2k",,true,9,-5.076089154067501,118.7173127058822,"Seam-C1","{""sulfur"":0.6609640250133944,""calorie"":4597.898410229839,""moisture"":12.13723860110011,""ash_content"":11.81509159706206}","2025-11-09T23:02:33.203Z","2025-11-09T23:02:33.203Z"
"cmhsbjlro00zymaftet7998t1","LP-0047","Loading Point 47","cmhsbjlds00owmaft9j257nzv",,true,4,-2.877606005278309,117.6178805766794,"Seam-B2","{""sulfur"":0.7827529237543387,""calorie"":4694.254422585776,""moisture"":18.22325699742467,""ash_content"":9.87982665253807}","2025-11-09T23:02:33.205Z","2025-11-09T23:02:33.205Z"
"cmhsbjlrq0100mafttzkyq7to","LP-0048","Loading Point 48","cmhsbjldv00oymaft5q3qizb9",,true,6,-3.905261724713902,118.6013425210222,"Seam-A1","{""sulfur"":0.3335316031385545,""calorie"":5283.565692402061,""moisture"":17.48777196032275,""ash_content"":9.09321882419441}","2025-11-09T23:02:33.206Z","2025-11-09T23:02:33.206Z"
"cmhsbjlrr0102maftx1y6khxe","LP-0049","Loading Point 49","cmhsbjldw00ozmafteu2ak4gm",,true,3,-3.618025462203102,117.4545189968147,"Seam-A1","{""sulfur"":0.5680276853712826,""calorie"":5239.940815153266,""moisture"":10.89021071440041,""ash_content"":4.832991962992951}","2025-11-09T23:02:33.208Z","2025-11-09T23:02:33.208Z"
"cmhsbjlrt0104mafts4gez292","LP-0050","Loading Point 50","cmhsbjled00p7maftuqkiaz5z",,true,5,-3.744250847839099,115.6347571896045,"Seam-B2","{""sulfur"":0.7870928372698849,""calorie"":5400.331888428214,""moisture"":11.13029823980242,""ash_content"":9.343594299113722}","2025-11-09T23:02:33.209Z","2025-11-09T23:02:33.209Z"
"cmhsbjlru0106maft8rq0268i","LP-0051","Loading Point 51","cmhsbjlek00pbmafteu42cv30",,true,5,-2.937869040598558,115.3604387724966,"Seam-C2","{""sulfur"":0.5746893020851249,""calorie"":4904.938747465906,""moisture"":10.93821242869418,""ash_content"":11.81575052399774}","2025-11-09T23:02:33.211Z","2025-11-09T23:02:33.211Z"
"cmhsbjlrw0108maft3l898k3h","LP-0052","Loading Point 52","cmhsbjlem00pcmaft280wq111",,false,8,-3.234965936275422,119.2269631706826,"Seam-A2","{""sulfur"":0.619604823027402,""calorie"":5713.130079619636,""moisture"":17.70936864734719,""ash_content"":10.87856419261882}","2025-11-09T23:02:33.212Z","2025-11-09T23:02:33.212Z"
"cmhsbjlrx010amaft6lmj67x8","LP-0053","Loading Point 53","cmhsbjleo00pdmafttawec34m",,true,3,-2.966283870409647,117.9563693930366,"Seam-B2","{""sulfur"":0.4075253908433485,""calorie"":5342.430942408357,""moisture"":10.87760822676795,""ash_content"":8.716747661882678}","2025-11-09T23:02:33.213Z","2025-11-09T23:02:33.213Z"
"cmhsbjlrz010cmaftn00omriz","LP-0054","Loading Point 54","cmhsbjlev00pjmaftukn4pvyv",,true,6,-5.127360001158731,118.4752030270519,"Seam-B2","{""sulfur"":0.2211449108756491,""calorie"":5037.914167360732,""moisture"":8.607709978658319,""ash_content"":4.660206045549508}","2025-11-09T23:02:33.215Z","2025-11-09T23:02:33.215Z"
"cmhsbjls1010emaftkdzehcbo","LP-0055","Loading Point 55","cmhsbjlew00pkmafty17etg15",,true,6,-3.926800660559347,118.9088961986188,"Seam-B1","{""sulfur"":0.356473080366224,""calorie"":5834.428833093719,""moisture"":13.01748422705229,""ash_content"":8.763350553694558}","2025-11-09T23:02:33.217Z","2025-11-09T23:02:33.217Z"
"cmhsbjls2010gmaftqt7hakrs","LP-0056","Loading Point 56","cmhsbjlez00pmmaftzx2q9nnx",,true,9,-3.579295232541635,116.3620156593765,"Seam-A1","{""sulfur"":0.3009626438285255,""calorie"":4892.336380893457,""moisture"":11.92610598155197,""ash_content"":7.7553340893799}","2025-11-09T23:02:33.219Z","2025-11-09T23:02:33.219Z"
"cmhsbjls4010imaftybtko63i","LP-0057","Loading Point 57","cmhsbjlf000pnmaftm5yrjp1i",,true,5,-3.359874285688426,116.2802057691508,"Seam-A1","{""sulfur"":0.3089264853515717,""calorie"":5567.724217533501,""moisture"":12.88196727818427,""ash_content"":5.894629076761809}","2025-11-09T23:02:33.220Z","2025-11-09T23:02:33.220Z"
"cmhsbjls6010kmaftljac4og4","LP-0058","Loading Point 58","cmhsbjlf300ppmafti77iajui",,false,4,-4.60665357573957,116.7103651133102,"Seam-C2","{""sulfur"":0.4420462716101505,""calorie"":5887.736695448722,""moisture"":8.692762042439067,""ash_content"":9.406624409656319}","2025-11-09T23:02:33.222Z","2025-11-09T23:02:33.222Z"
"cmhsbjls7010mmaftw5j773i9","LP-0059","Loading Point 59","cmhsbjlfb00pvmaft6as9a5s8",,true,7,-4.025978241844236,116.9397715416357,"Seam-C2","{""sulfur"":0.3019506555325653,""calorie"":4965.87707590402,""moisture"":10.537582878802,""ash_content"":4.924240990723757}","2025-11-09T23:02:33.223Z","2025-11-09T23:02:33.223Z"
"cmhsbjls8010omaft18xpu3hc","LP-0060","Loading Point 60","cmhsbjlfd00pxmaft3bhw857w",,true,7,-3.693370347596661,119.2631184014058,"Seam-A2","{""sulfur"":0.4245154589192954,""calorie"":4850.78537110554,""moisture"":11.3494337383128,""ash_content"":11.87485218005845}","2025-11-09T23:02:33.225Z","2025-11-09T23:02:33.225Z"
"cmhsbjlsa010qmaftc45mbtdy","LP-0061","Loading Point 61","cmhsbjlfg00pzmaftvo96adsx",,true,4,-3.561765340870305,115.7707683151075,"Seam-A2","{""sulfur"":0.7397554753725795,""calorie"":5149.304565653305,""moisture"":12.75418966706805,""ash_content"":11.74763366128663}","2025-11-09T23:02:33.226Z","2025-11-09T23:02:33.226Z"
"cmhsbjlsb010smaftznb22zyz","LP-0062","Loading Point 62","cmhsbjlfm00q3maftg8xhq7wp",,true,8,-2.888066398179634,119.1480083739092,"Seam-B2","{""sulfur"":0.2384130072348969,""calorie"":5723.951427020868,""moisture"":10.01353537046306,""ash_content"":4.146154050492193}","2025-11-09T23:02:33.228Z","2025-11-09T23:02:33.228Z"
"cmhsbjlsd010umaftaxzllga5","LP-0063","Loading Point 63","cmhsbjlfo00q5maftkime8tvj",,true,4,-4.295300621257703,119.8067937750984,"Seam-B1","{""sulfur"":0.226898307832071,""calorie"":5674.89752274949,""moisture"":9.58356825064557,""ash_content"":6.821405209128324}","2025-11-09T23:02:33.229Z","2025-11-09T23:02:33.229Z"
"cmhsbjlse010wmaftxmal9oye","LP-0064","Loading Point 64","cmhsbjlfr00q7maftpbq22f39",,true,5,-4.951048530723287,116.7284047375942,"Seam-B2","{""sulfur"":0.5611457408163574,""calorie"":4638.947474523019,""moisture"":17.42236524279529,""ash_content"":11.22775220107908}","2025-11-09T23:02:33.230Z","2025-11-09T23:02:33.230Z"
"cmhsbjlsh010ymaftkjoqmpon","LP-0065","Loading Point 65","cmhsbjlft00q9maftm5u5pf8x",,true,7,-4.601222499998457,116.0487327293422,"Seam-C2","{""sulfur"":0.6729464830472744,""calorie"":5523.941852634908,""moisture"":14.96057298433941,""ash_content"":7.588584946168922}","2025-11-09T23:02:33.233Z","2025-11-09T23:02:33.233Z"
"cmhsbjlsj0110maft5iu2isla","LP-0066","Loading Point 66","cmhsbjlfx00qcmaftooymyxot",,true,9,-3.802296638929068,119.9850928623608,"Seam-C1","{""sulfur"":0.5223439739367237,""calorie"":4687.348183338037,""moisture"":17.97974827247915,""ash_content"":11.615944178155}","2025-11-09T23:02:33.235Z","2025-11-09T23:02:33.235Z"
"cmhsbjlsl0112maftuwztncfb","LP-0067","Loading Point 67","cmhsbjlfz00qdmaft567lvbm8",,true,6,-4.179619819116962,117.4171564233514,"Seam-C2","{""sulfur"":0.6147664842434627,""calorie"":4794.923986097058,""moisture"":9.64717771701587,""ash_content"":5.928591603664636}","2025-11-09T23:02:33.237Z","2025-11-09T23:02:33.237Z"
"cmhsbjlsm0114maftohdfppxy","LP-0068","Loading Point 68","cmhsbjlg900qlmaftgtlgp2uu",,true,8,-3.798966823920719,119.5667808323172,"Seam-D","{""sulfur"":0.6820526935060944,""calorie"":5026.807396507747,""moisture"":17.50770525047768,""ash_content"":9.715388479139222}","2025-11-09T23:02:33.238Z","2025-11-09T23:02:33.238Z"
"cmhsbjlsn0116maft2pvxa4nb","LP-0069","Loading Point 69","cmhsbjlgg00qqmaftu4oeeqmo",,true,4,-4.735434286180034,117.4864698746454,"Seam-B2","{""sulfur"":0.2244280991956368,""calorie"":4801.76036395665,""moisture"":12.6360670661809,""ash_content"":9.420391941046976}","2025-11-09T23:02:33.240Z","2025-11-09T23:02:33.240Z"
"cmhsbjlsp0118maftip893f3k","LP-0070","Loading Point 70","cmhsbjlgi00qrmaftmox9xq91",,true,9,-3.843178345707933,116.7734689855106,"Seam-B2","{""sulfur"":0.685640794092157,""calorie"":5907.474449933648,""moisture"":12.12623562053258,""ash_content"":6.682902158959164}","2025-11-09T23:02:33.241Z","2025-11-09T23:02:33.241Z"
"cmhsbjlsq011amaftcjwd0vmj","LP-0071","Loading Point 71","cmhsbjlgm00qumaft6z61msqq",,true,9,-3.933011703022386,119.4262555487714,"Seam-B1","{""sulfur"":0.4910930697829127,""calorie"":4773.11088538567,""moisture"":19.34674805899053,""ash_content"":6.177418913391405}","2025-11-09T23:02:33.242Z","2025-11-09T23:02:33.242Z"
"cmhsbjlss011cmaft25zwfenp","LP-0072","Loading Point 72","cmhsbjlgn00qvmaft1qqher0x",,true,4,-4.409809347610321,116.0915501683609,"Seam-C2","{""sulfur"":0.3946790416412118,""calorie"":4591.573328877728,""moisture"":18.13761076905777,""ash_content"":4.822706872972665}","2025-11-09T23:02:33.244Z","2025-11-09T23:02:33.244Z"
"cmhsbjlst011emaft5jsj1bt7","LP-0073","Loading Point 73","cmhsbjlh000r4maftmudwno2f",,true,5,-2.768723908668853,115.1074250462616,"Seam-B2","{""sulfur"":0.3892423048060737,""calorie"":5450.143776882044,""moisture"":8.856446681320259,""ash_content"":10.91738507258377}","2025-11-09T23:02:33.245Z","2025-11-09T23:02:33.245Z"
"cmhsbjlsu011gmaft86hxdzm7","LP-0074","Loading Point 74","cmhsbjlhh00rhmaft63qi27pf",,false,3,-5.394832553709866,115.3601436740031,"Seam-A2","{""sulfur"":0.4638163589005663,""calorie"":5986.953077354928,""moisture"":10.63776417182559,""ash_content"":8.16600355235471}","2025-11-09T23:02:33.247Z","2025-11-09T23:02:33.247Z"
"cmhsbjlsw011imafthfqq4av9","LP-0075","Loading Point 75","cmhsbjlhy00rtmaftk6oi347s",,true,6,-4.902318703281159,117.7665474515301,"Seam-B1","{""sulfur"":0.4603242537569138,""calorie"":4812.137889182092,""moisture"":18.45516521427028,""ash_content"":8.20430841392827}","2025-11-09T23:02:33.248Z","2025-11-09T23:02:33.248Z"
"cmhsbjlsy011kmaft4c2x95nr","LP-0076","Loading Point 76","cmhsbjli200rwmaftt2j5u1st",,true,9,-3.90556810336565,118.1705286362189,"Seam-B2","{""sulfur"":0.2929311405470574,""calorie"":5815.485851085976,""moisture"":10.59929131808528,""ash_content"":6.156133852246775}","2025-11-09T23:02:33.251Z","2025-11-09T23:02:33.251Z"
"cmhsbjlt0011mmaftpwsxkt7k","LP-0077","Loading Point 77","cmhsbjli500rymaftnjlwf83w",,true,6,-4.472881820266502,117.997080807636,"Seam-D","{""sulfur"":0.6967950977015865,""calorie"":5000.644856458167,""moisture"":10.2495745570498,""ash_content"":7.126714555396569}","2025-11-09T23:02:33.252Z","2025-11-09T23:02:33.252Z"
"cmhsbjlt1011omaftvd2675qf","LP-0078","Loading Point 78","cmhsbjlib00s2maftioyoq0rf",,true,5,-4.236977801482494,116.9467874864561,"Seam-C1","{""sulfur"":0.2002850249995977,""calorie"":4737.023719918823,""moisture"":16.09610336801205,""ash_content"":10.76090663649726}","2025-11-09T23:02:33.254Z","2025-11-09T23:02:33.254Z"
"cmhsbjlt3011qmaftsi5n36kd","LP-0079","Loading Point 79","cmhsbjlih00s7maftwoxpp1ot",,true,7,-4.014245918085345,116.5236125873201,"Seam-B2","{""sulfur"":0.5430608232853431,""calorie"":5651.500479901212,""moisture"":19.62461628037106,""ash_content"":9.220707818307318}","2025-11-09T23:02:33.255Z","2025-11-09T23:02:33.255Z"
"cmhsbjlt4011smaftb1edcwgm","LP-0080","Loading Point 80","cmhsbjlij00s8maftn8gndi7r",,false,5,-4.373013937053424,116.9143260380211,"Seam-A2","{""sulfur"":0.5253155136454642,""calorie"":4810.955505671736,""moisture"":17.53052444146159,""ash_content"":5.732998118529999}","2025-11-09T23:02:33.257Z","2025-11-09T23:02:33.257Z"
"cmhsbjlt6011umaftsolaatq6","LP-0081","Loading Point 81","cmhsbjlil00samaftpif5y7n4",,true,7,-4.280802016872494,119.3652154880391,"Seam-B2","{""sulfur"":0.549497358719548,""calorie"":4626.412955067029,""moisture"":14.08855106872694,""ash_content"":9.87498204345838}","2025-11-09T23:02:33.258Z","2025-11-09T23:02:33.258Z"
"cmhsbjlt7011wmaft0wlc0t3z","LP-0082","Loading Point 82","cmhsbjlin00scmaftkjq4cj3k",,true,3,-3.707317101205727,116.8874233234909,"Seam-B1","{""sulfur"":0.2371652222553915,""calorie"":5051.093747033803,""moisture"":10.37474647567442,""ash_content"":5.189623012276202}","2025-11-09T23:02:33.259Z","2025-11-09T23:02:33.259Z"
"cmhsbjlt8011ymaftazelnixd","LP-0083","Loading Point 83","cmhsbjlj100smmaftzk7md7oi",,true,7,-5.046516426250904,118.4120262149437,"Seam-D","{""sulfur"":0.7621370089254653,""calorie"":4698.645978785599,""moisture"":15.13382731471343,""ash_content"":10.32524968501614}","2025-11-09T23:02:33.261Z","2025-11-09T23:02:33.261Z"
"cmhsbjlta0120mafthqqpei8t","LP-0084","Loading Point 84","cmhsbjljh00symaftisjd6ru0",,true,8,-5.472013586413106,117.7544362511951,"Seam-A2","{""sulfur"":0.7001854484257592,""calorie"":4712.249562010615,""moisture"":16.94777912667696,""ash_content"":8.913957593876754}","2025-11-09T23:02:33.262Z","2025-11-09T23:02:33.262Z"
"cmhsbjltb0122maftccm1jo8q","LP-0085","Loading Point 85","cmhsbjljn00t2maftwq1j62lj",,true,3,-4.378915909663188,118.3702528380264,"Seam-C1","{""sulfur"":0.6531747073631682,""calorie"":5853.030446348494,""moisture"":19.14231777602022,""ash_content"":8.236319339958634}","2025-11-09T23:02:33.264Z","2025-11-09T23:02:33.264Z"
"cmhsbjltd0124maftmewj7rng","LP-0086","Loading Point 86","cmhsbjljr00t5maftnpmlzcha",,true,5,-2.76459871385229,115.4569776189518,"Seam-A2","{""sulfur"":0.4496772399163101,""calorie"":5795.817117146618,""moisture"":11.48900214609523,""ash_content"":7.19909858035653}","2025-11-09T23:02:33.266Z","2025-11-09T23:02:33.266Z"
"cmhsbjltf0126maft7kqzjuqr","LP-0087","Loading Point 87","cmhsbjlju00t7maftgt3t0o6r",,true,3,-4.24670258221452,118.1268217942648,"Seam-A1","{""sulfur"":0.7253714582620419,""calorie"":4565.013755927027,""moisture"":9.185621224567674,""ash_content"":9.74502918501507}","2025-11-09T23:02:33.268Z","2025-11-09T23:02:33.268Z"
"cmhsbjlth0128maftxxo2rw13","LP-0088","Loading Point 88","cmhsbjlk100tdmaft88wgstx6",,true,7,-4.805868964085463,117.991317766057,"Seam-A1","{""sulfur"":0.3390829773836813,""calorie"":5513.221962507042,""moisture"":13.24871283598686,""ash_content"":7.051790005201033}","2025-11-09T23:02:33.270Z","2025-11-09T23:02:33.270Z"
"cmhsbjltj012amaftdkf4vpop","LP-0089","Loading Point 89","cmhsbjlk500tgmaftb1vaqcbk",,true,8,-4.889382024423582,118.4899584827554,"Seam-A2","{""sulfur"":0.2563538537383193,""calorie"":5812.830543365551,""moisture"":10.52833774118571,""ash_content"":4.09464721294761}","2025-11-09T23:02:33.271Z","2025-11-09T23:02:33.271Z"
"cmhsbjltk012cmaftvh3giafg","LP-0090","Loading Point 90","cmhsbjlk800timaft1jikmdvt",,true,4,-3.765478357300593,116.6778071894457,"Seam-C2","{""sulfur"":0.2277608855165533,""calorie"":5108.083360230302,""moisture"":14.72131081019122,""ash_content"":6.288509365657399}","2025-11-09T23:02:33.272Z","2025-11-09T23:02:33.272Z"
"cmhsbjltl012emaft4lt61r1s","LP-0091","Loading Point 91","cmhsbjlk900tjmaft3rna530t",,true,7,-4.298752974760189,116.2435427122082,"Seam-C1","{""sulfur"":0.3262385387139518,""calorie"":4753.033485063508,""moisture"":16.82710859561816,""ash_content"":9.48723041835879}","2025-11-09T23:02:33.274Z","2025-11-09T23:02:33.274Z"
"cmhsbjltn012gmaftttnx83z6","LP-0092","Loading Point 92","cmhsbjlkd00tmmafty4vbqr0i",,true,4,-3.59866470348622,119.7336004300892,"Seam-B2","{""sulfur"":0.755598803042822,""calorie"":4948.289974416763,""moisture"":14.1971224097885,""ash_content"":11.13926425611648}","2025-11-09T23:02:33.275Z","2025-11-09T23:02:33.275Z"
"cmhsbjlto012imaftedyqdrgo","LP-0093","Loading Point 93","cmhsbjll800u8maftkvc2nch4",,true,3,-4.777563182980938,118.5301454885166,"Seam-C2","{""sulfur"":0.6891845383738942,""calorie"":5142.207552343723,""moisture"":13.23682293046743,""ash_content"":5.515911630254438}","2025-11-09T23:02:33.277Z","2025-11-09T23:02:33.277Z"
"cmhsbjltq012kmaftghfcibqf","LP-0094","Loading Point 94","cmhsbjllc00ubmaftfdlfp0hg",,true,4,-3.006110125188295,117.3085324763927,"Seam-C1","{""sulfur"":0.7256506846903041,""calorie"":5992.581016281074,""moisture"":14.4757828394627,""ash_content"":5.180192455293282}","2025-11-09T23:02:33.278Z","2025-11-09T23:02:33.278Z"
"cmhsbjltr012mmaftdrrjf442","LP-0095","Loading Point 95","cmhsbjllg00uemaftaohxd6cp",,true,7,-3.868444516469107,119.734474943439,"Seam-D","{""sulfur"":0.4432868341434495,""calorie"":5002.258749383537,""moisture"":18.53132935103249,""ash_content"":6.332834016933607}","2025-11-09T23:02:33.280Z","2025-11-09T23:02:33.280Z"
"cmhsbjltt012omaft9gyjser9","LP-0096","Loading Point 96","cmhsbjllh00ufmaftrp45436m",,true,3,-3.328462566187791,118.2365784721817,"Seam-A1","{""sulfur"":0.2313723691140378,""calorie"":4922.144177465746,""moisture"":10.97868674967366,""ash_content"":10.23829130395025}","2025-11-09T23:02:33.281Z","2025-11-09T23:02:33.281Z"
"cmhsbjltv012qmaft3n0rgjwj","LP-0097","Loading Point 97","cmhsbjllj00ugmaft9arylr8i",,false,8,-4.732163734093195,115.5981024447616,"Seam-C1","{""sulfur"":0.578928446112607,""calorie"":4670.730167167048,""moisture"":8.809698759601618,""ash_content"":11.25149000963253}","2025-11-09T23:02:33.284Z","2025-11-09T23:02:33.284Z"
"cmhsbjltx012smaft8isgl1nf","LP-0098","Loading Point 98","cmhsbjlls00ummaftwr4s6645",,true,3,-4.266111979744072,119.2205137210495,"Seam-A2","{""sulfur"":0.5741270559435188,""calorie"":5496.850201804713,""moisture"":9.950874106380638,""ash_content"":7.438033085184573}","2025-11-09T23:02:33.285Z","2025-11-09T23:02:33.285Z"
"cmhsbjltz012umaft7y8ymdmb","LP-0099","Loading Point 99","cmhsbjllu00uomaft4lb4ge27",,true,7,-4.081254470190261,115.046640837799,"Seam-C1","{""sulfur"":0.530574350569756,""calorie"":4979.668994979107,""moisture"":15.19777396027372,""ash_content"":9.874967089311882}","2025-11-09T23:02:33.287Z","2025-11-09T23:02:33.287Z"
"cmhsbjlu0012wmaft2uwyacce","LP-0100","Loading Point 100","cmhsbjlmd00v2mafts4a2lker",,true,5,-2.767831464806067,116.1757916331778,"Seam-B1","{""sulfur"":0.4680628998215909,""calorie"":5910.882194112079,""moisture"":14.42837025921416,""ash_content"":7.768221699409061}","2025-11-09T23:02:33.288Z","2025-11-09T23:02:33.288Z"
"cmhsbjlu1012ymaftdu8hvw2k","LP-0101","Loading Point 101","cmhsbjlmf00v3maft1myqjm8w",,true,3,-4.386971773534912,119.6548414525589,"Seam-B1","{""sulfur"":0.6525751515745855,""calorie"":4648.737350479223,""moisture"":18.58633817803909,""ash_content"":11.0631901522726}","2025-11-09T23:02:33.290Z","2025-11-09T23:02:33.290Z"
"cmhsbjlu30130maftcnc491v3","LP-0102","Loading Point 102","cmhsbjlmy00vhmaftfsnq55kk",,true,9,-2.994568295483623,117.1205953268806,"Seam-C2","{""sulfur"":0.4275707520551359,""calorie"":5672.902093355833,""moisture"":18.84011496283304,""ash_content"":4.537700700121652}","2025-11-09T23:02:33.291Z","2025-11-09T23:02:33.291Z"
"cmhsbjlu50132maftudv8tuwc","LP-0103","Loading Point 103","cmhsbjln600vnmaftmwr70krk",,true,6,-4.79590489178444,117.0196605967197,"Seam-B2","{""sulfur"":0.2134042006749839,""calorie"":4665.596852050519,""moisture"":19.33204789898583,""ash_content"":6.720167299258842}","2025-11-09T23:02:33.293Z","2025-11-09T23:02:33.293Z"
"cmhsbjlu60134maftfuucpcb1","LP-0104","Loading Point 104","cmhsbjlni00vwmaftfnfq7wut",,true,9,-4.349742894534347,116.7629059530889,"Seam-C2","{""sulfur"":0.2313771396249399,""calorie"":5267.615646289655,""moisture"":9.780401230368991,""ash_content"":9.85858056941379}","2025-11-09T23:02:33.295Z","2025-11-09T23:02:33.295Z"
"cmhsbjlu80136maftsh73uh04","LP-0105","Loading Point 105","cmhsbjlnq00w2maftl4f99lny",,true,5,-4.737289231120641,118.180571345163,"Seam-C2","{""sulfur"":0.6787802954408074,""calorie"":5230.414736092179,""moisture"":19.94805412706878,""ash_content"":4.041347271427902}","2025-11-09T23:02:33.296Z","2025-11-09T23:02:33.296Z"
"cmhsbjlu90138maftwyqdhlxv","LP-0106","Loading Point 106","cmhsbjlnz00w8mafti8qdlg25",,true,8,-3.862879717126908,115.3389388400442,"Seam-B1","{""sulfur"":0.2758453511480037,""calorie"":4916.922492859558,""moisture"":18.94629161382165,""ash_content"":9.840707509296324}","2025-11-09T23:02:33.298Z","2025-11-09T23:02:33.298Z"
"cmhsbjlub013amaftgucf7al4","LP-0107","Loading Point 107","cmhsbjlo100wamafteldoo1vz",,true,6,-2.86613741306415,116.8780221868616,"Seam-A2","{""sulfur"":0.5841162166119884,""calorie"":5464.548010534523,""moisture"":13.01820169618845,""ash_content"":11.66638477416149}","2025-11-09T23:02:33.300Z","2025-11-09T23:02:33.300Z"
"cmhsbjlud013cmaftqry72g2m","LP-0108","Loading Point 108","cmhsbjlo400wcmaftdcn1ugi3",,true,3,-5.267259709476138,117.2224251086291,"Seam-D","{""sulfur"":0.3006868697240532,""calorie"":5749.603443042528,""moisture"":15.84820512301953,""ash_content"":8.262236237894824}","2025-11-09T23:02:33.302Z","2025-11-09T23:02:33.302Z"
"cmhsbjluf013emaftkt5utajq","LP-0109","Loading Point 109","cmhsbjlo600wemaftj2qt70qu",,true,5,-3.58281337720492,115.6995007202806,"Seam-A1","{""sulfur"":0.3889735271837046,""calorie"":5731.593021809326,""moisture"":12.93650034969555,""ash_content"":11.17696484783676}","2025-11-09T23:02:33.303Z","2025-11-09T23:02:33.303Z"
"cmhsbjlug013gmafti8iqkx7r","LP-0110","Loading Point 110","cmhsbjloe00wkmafta6pa8ee1",,true,9,-5.409214816537559,117.6419045006363,"Seam-A2","{""sulfur"":0.2827199582935964,""calorie"":4810.380459407293,""moisture"":8.17272264692038,""ash_content"":10.04059577496563}","2025-11-09T23:02:33.304Z","2025-11-09T23:02:33.304Z"
"cmhsbjlui013imaftp28oht45","LP-0111","Loading Point 111","cmhsbjlog00wlmaft4vcm8jik",,true,9,-4.327427369782559,116.9734783614275,"Seam-A2","{""sulfur"":0.6786842753038758,""calorie"":5907.094070372639,""moisture"":17.26963430087454,""ash_content"":4.010008613440165}","2025-11-09T23:02:33.306Z","2025-11-09T23:02:33.306Z"
"cmhsbjluj013kmaftr6dujp4i","LP-0112","Loading Point 112","cmhsbjloo00wsmaftv43z6h26",,true,4,-5.018201224989619,116.8712580245992,"Seam-D","{""sulfur"":0.2574182108688444,""calorie"":5591.383326534533,""moisture"":13.38440663955312,""ash_content"":7.239855915306245}","2025-11-09T23:02:33.308Z","2025-11-09T23:02:33.308Z"
"cmhsbjluk013mmaft06pgufrg","LP-0113","Loading Point 113","cmhsbjlot00wvmaft1k1yr3hn",,true,8,-5.12140530840546,118.8034583197209,"Seam-C1","{""sulfur"":0.2353289259711229,""calorie"":4929.910924469366,""moisture"":10.61395690829987,""ash_content"":7.283497528767676}","2025-11-09T23:02:33.309Z","2025-11-09T23:02:33.309Z"
"cmhsbjlum013omafts9vvd3ka","LP-0114","Loading Point 114","cmhsbjlou00wwmaftx5qimjmv",,true,5,-5.445718730177249,119.5510573893979,"Seam-B2","{""sulfur"":0.2232753445659513,""calorie"":4845.996229524418,""moisture"":10.15463916522989,""ash_content"":10.68685762704867}","2025-11-09T23:02:33.310Z","2025-11-09T23:02:33.310Z"
"cmhsbjlun013qmaft678prk57","LP-0115","Loading Point 115","cmhsbjlpg00xcmaftbtggmgo2",,true,3,-4.896518629663579,117.6927478326669,"Seam-C2","{""sulfur"":0.7164709814351138,""calorie"":4971.325272885739,""moisture"":13.41758378564579,""ash_content"":5.041450232894288}","2025-11-09T23:02:33.312Z","2025-11-09T23:02:33.312Z"
"cmhsbjlup013smaft3r9p5g3f","LP-0116","Loading Point 116","cmhsbjl1200gtmaft1ubw7644",,true,4,-5.123699062007084,116.4822647639786,"Seam-C1","{""sulfur"":0.7240307981319409,""calorie"":4920.981093260069,""moisture"":18.58567506129522,""ash_content"":4.349116301119496}","2025-11-09T23:02:33.313Z","2025-11-09T23:02:33.313Z"
"cmhsbjluq013umaftgx959w9c","LP-0117","Loading Point 117","cmhsbjl1f00h0maft2huv3pkm",,true,8,-3.246379982394354,116.5608101215029,"Seam-A1","{""sulfur"":0.5859313400654185,""calorie"":5378.795180682624,""moisture"":17.88972011805853,""ash_content"":4.226932099749709}","2025-11-09T23:02:33.314Z","2025-11-09T23:02:33.314Z"
"cmhsbjlus013wmaftq2cg4joj","LP-0118","Loading Point 118","cmhsbjl1k00h4maftgx0bbbu9",,true,8,-2.506156810080869,115.7105243760707,"Seam-B1","{""sulfur"":0.6611507034570734,""calorie"":4927.894164303592,""moisture"":10.21503296023247,""ash_content"":9.499723167463186}","2025-11-09T23:02:33.317Z","2025-11-09T23:02:33.317Z"
"cmhsbjluu013ymaftswqhr53g","LP-0119","Loading Point 119","cmhsbjl2000hgmaftuyyvbplz",,true,9,-4.553520499762278,116.553939074732,"Seam-B2","{""sulfur"":0.3079088843429402,""calorie"":4723.794287348856,""moisture"":18.76889511133188,""ash_content"":8.163484735503367}","2025-11-09T23:02:33.319Z","2025-11-09T23:02:33.319Z"
"cmhsbjluw0140maft3bhtrn8o","LP-0120","Loading Point 120","cmhsbjl2p00hymaft49un52lz",,true,9,-4.754891212366446,116.8169801402124,"Seam-A2","{""sulfur"":0.7427796714082571,""calorie"":5701.181357657953,""moisture"":16.97951453998148,""ash_content"":11.75487528989829}","2025-11-09T23:02:33.320Z","2025-11-09T23:02:33.320Z"
"cmhsbjlux0142maftrvugymtr","LP-0121","Loading Point 121","cmhsbjl2t00i1maft001104sc",,true,3,-4.217729799510173,115.0772596922455,"Seam-C1","{""sulfur"":0.6615523772418397,""calorie"":5641.212907048328,""moisture"":16.93293125675365,""ash_content"":11.70674383893484}","2025-11-09T23:02:33.321Z","2025-11-09T23:02:33.321Z"
"cmhsbjluy0144maft5cqjfxao","LP-0122","Loading Point 122","cmhsbjl3000i6maftbwryncan",,true,9,-3.839440489816841,115.2008728555223,"Seam-C1","{""sulfur"":0.6983768388216882,""calorie"":4925.42223145062,""moisture"":18.7578576930912,""ash_content"":9.210257872203632}","2025-11-09T23:02:33.323Z","2025-11-09T23:02:33.323Z"
"cmhsbjlv00146maftgajyrxa4","LP-0123","Loading Point 123","cmhsbjl3100i7maft7uyztqkh",,false,6,-5.114748046342091,119.2459546614,"Seam-D","{""sulfur"":0.6620475622933424,""calorie"":5866.481766065264,""moisture"":17.98285166611007,""ash_content"":4.409668032540662}","2025-11-09T23:02:33.324Z","2025-11-09T23:02:33.324Z"
"cmhsbjlv20148maft0xxuiq2a","LP-0124","Loading Point 124","cmhsbjl3400i9maftjjbg1dsl",,true,7,-5.448232761099074,116.6613756485903,"Seam-D","{""sulfur"":0.6545169233200459,""calorie"":5058.695856773889,""moisture"":16.80843135139106,""ash_content"":9.655854238482032}","2025-11-09T23:02:33.326Z","2025-11-09T23:02:33.326Z"
"cmhsbjlv3014amaftrd0jbhn7","LP-0125","Loading Point 125","cmhsbjl3o00iomafti6ytkd5z",,true,8,-4.252179837319158,119.7383486712373,"Seam-B2","{""sulfur"":0.7645733198056888,""calorie"":4687.092704537435,""moisture"":10.15915848276202,""ash_content"":11.615020284968}","2025-11-09T23:02:33.327Z","2025-11-09T23:02:33.327Z"
"cmhsbjlv4014cmaft15z0vh9q","LP-0126","Loading Point 126","cmhsbjl3r00iqmaft9rpm9lx2",,true,6,-5.096177357028526,116.8347468644229,"Seam-A2","{""sulfur"":0.4928811488799115,""calorie"":5297.185604163912,""moisture"":16.32811168644331,""ash_content"":10.3626999552864}","2025-11-09T23:02:33.329Z","2025-11-09T23:02:33.329Z"
"cmhsbjlv6014emaftmwtc3gmn","LP-0127","Loading Point 127","cmhsbjl3v00itmaft6cjod7he",,true,3,-5.321359115103647,117.9476592388769,"Seam-D","{""sulfur"":0.2597409093053007,""calorie"":4726.61565959177,""moisture"":9.865554972327168,""ash_content"":6.399014093373101}","2025-11-09T23:02:33.330Z","2025-11-09T23:02:33.330Z"
"cmhsbjlv8014gmaftkqffjilr","LP-0128","Loading Point 128","cmhsbjl4a00j4maftmdl364la",,true,5,-3.061767946461386,118.5661968064576,"Seam-C2","{""sulfur"":0.637936624771321,""calorie"":5222.84342280598,""moisture"":16.84275539439115,""ash_content"":4.367828092126894}","2025-11-09T23:02:33.332Z","2025-11-09T23:02:33.332Z"
"cmhsbjlva014imaftttu4b2fx","LP-0129","Loading Point 129","cmhsbjl4m00jcmaft72mluut9",,true,9,-3.129255748654609,120.004094886324,"Seam-C2","{""sulfur"":0.5428177253814231,""calorie"":5526.38635947261,""moisture"":15.11446289957348,""ash_content"":4.435482423590667}","2025-11-09T23:02:33.334Z","2025-11-09T23:02:33.334Z"
"cmhsbjlvc014kmaft0d0rd5iz","LP-0130","Loading Point 130","cmhsbjl4p00jemaft9i2n2wf7",,true,9,-2.916378285993655,117.4421469332541,"Seam-B1","{""sulfur"":0.5916163456982496,""calorie"":4613.22944266842,""moisture"":19.55657539556622,""ash_content"":11.4236846988844}","2025-11-09T23:02:33.336Z","2025-11-09T23:02:33.336Z"
"cmhsbjlvd014mmaftf25fu384","LP-0131","Loading Point 131","cmhsbjl4y00jkmaft0f8g3wll",,true,9,-2.898057745836142,117.9202161440185,"Seam-C1","{""sulfur"":0.7704440638217473,""calorie"":5262.217021344591,""moisture"":8.606616264388666,""ash_content"":7.956438419208796}","2025-11-09T23:02:33.338Z","2025-11-09T23:02:33.338Z"
"cmhsbjlvf014omaftsq6d4v6s","LP-0132","Loading Point 132","cmhsbjl4z00jlmaftq1l7o9k6",,true,7,-4.336912042430696,118.9171004943885,"Seam-C2","{""sulfur"":0.2184125472319136,""calorie"":4652.274210212303,""moisture"":11.84424117117033,""ash_content"":4.479581691248731}","2025-11-09T23:02:33.339Z","2025-11-09T23:02:33.339Z"
"cmhsbjlvg014qmaftikntl435","LP-0133","Loading Point 133","cmhsbjl5100jmmaftqhdvf3e1",,true,9,-4.917594834976937,119.9705911471784,"Seam-B1","{""sulfur"":0.4892272842289932,""calorie"":5394.445041746661,""moisture"":15.76750096007804,""ash_content"":7.238888347259632}","2025-11-09T23:02:33.341Z","2025-11-09T23:02:33.341Z"
"cmhsbjlvi014smaftdj3era4p","LP-0134","Loading Point 134","cmhsbjl5a00jtmaftydrkrnme",,true,6,-2.520498235837327,115.7827223338337,"Seam-A1","{""sulfur"":0.5019665149236672,""calorie"":4925.51423472779,""moisture"":10.75042964409563,""ash_content"":4.729505779996998}","2025-11-09T23:02:33.342Z","2025-11-09T23:02:33.342Z"
"cmhsbjlvj014umaftxmo3fhl0","LP-0135","Loading Point 135","cmhsbjl5n00k3maftfhfgbd4a",,true,3,-5.43888278858417,119.2545948731232,"Seam-C2","{""sulfur"":0.4576448993281236,""calorie"":5990.293679254159,""moisture"":8.036177966418457,""ash_content"":6.700969170352097}","2025-11-09T23:02:33.343Z","2025-11-09T23:02:33.343Z"
"cmhsbjlvk014wmaftinf7k5k6","LP-0136","Loading Point 136","cmhsbjl5u00k8mafttr488qqf",,true,9,-2.979060816936974,118.132807733768,"Seam-C1","{""sulfur"":0.4764716587556583,""calorie"":5462.704834798064,""moisture"":10.86453831846607,""ash_content"":5.101411926171208}","2025-11-09T23:02:33.345Z","2025-11-09T23:02:33.345Z"
"cmhsbjlvm014ymaftjvf2fhx0","LP-0137","Loading Point 137","cmhsbjl5w00k9maft1a7a6lh4",,true,6,-3.877693695140746,117.5554405403529,"Seam-D","{""sulfur"":0.4769818239093076,""calorie"":4967.029947657947,""moisture"":18.73989279607399,""ash_content"":9.347955752713002}","2025-11-09T23:02:33.346Z","2025-11-09T23:02:33.346Z"
"cmhsbjlvo0150maft10xgf5on","LP-0138","Loading Point 138","cmhsbjl5y00kbmaftcc2w4o7l",,true,9,-4.151273157361994,115.0985356862405,"Seam-B2","{""sulfur"":0.4158339519177737,""calorie"":5047.401504573858,""moisture"":16.05111122122852,""ash_content"":6.920147434412037}","2025-11-09T23:02:33.348Z","2025-11-09T23:02:33.348Z"
"cmhsbjlvq0152maft11cf3q3x","LP-0139","Loading Point 139","cmhsbjl6200kemaftlztwrepv",,true,8,-2.566513965882325,116.5921649336724,"Seam-B2","{""sulfur"":0.7998565337729711,""calorie"":4932.981740428647,""moisture"":18.34968565093082,""ash_content"":8.134049763958117}","2025-11-09T23:02:33.350Z","2025-11-09T23:02:33.350Z"
"cmhsbjlvr0154maftyn12boxl","LP-0140","Loading Point 140","cmhsbjl6300kfmaft2tfnuus0",,true,5,-4.872393900463743,119.9759419018789,"Seam-D","{""sulfur"":0.4956284223298202,""calorie"":4549.189583100428,""moisture"":11.27020309676368,""ash_content"":8.883792323943126}","2025-11-09T23:02:33.352Z","2025-11-09T23:02:33.352Z"
"cmhsbjlvt0156maftsa51mjo7","LP-0141","Loading Point 141","cmhsbjl6e00kmmafto4599e0p",,true,3,-2.555384622158699,117.7466938172205,"Seam-C2","{""sulfur"":0.7046875374883375,""calorie"":5452.83303303032,""moisture"":18.91607210038955,""ash_content"":6.160089836063301}","2025-11-09T23:02:33.353Z","2025-11-09T23:02:33.353Z"
"cmhsbjlvu0158maft0wjxqbpa","LP-0142","Loading Point 142","cmhsbjl6k00krmaftpms3m5i0",,true,9,-4.277373754586345,116.5217354201995,"Seam-A2","{""sulfur"":0.4476223885190928,""calorie"":4986.222306278903,""moisture"":13.37277191632165,""ash_content"":10.53155580510337}","2025-11-09T23:02:33.355Z","2025-11-09T23:02:33.355Z"
"cmhsbjlvw015amafty6x8phyz","LP-0143","Loading Point 143","cmhsbjl7g00lfmaftat6c21hr",,true,3,-2.912985468253337,118.7676535666011,"Seam-C1","{""sulfur"":0.2752681862486205,""calorie"":5581.66316656684,""moisture"":16.45918735347338,""ash_content"":4.8593093776175}","2025-11-09T23:02:33.356Z","2025-11-09T23:02:33.356Z"
"cmhsbjlvx015cmaft1uimdrvo","LP-0144","Loading Point 144","cmhsbjl7t00lomaftih016hyz",,true,3,-5.186927670041955,119.7149735976076,"Seam-A2","{""sulfur"":0.5044889785246004,""calorie"":4630.430029433998,""moisture"":8.875528025073274,""ash_content"":11.01150489038237}","2025-11-09T23:02:33.357Z","2025-11-09T23:02:33.357Z"
"cmhsbjlvy015emaftjpqrsj0f","LP-0145","Loading Point 145","cmhsbjl7u00lpmaftra23t5ar",,true,9,-2.811543608014729,119.2758940052422,"Seam-C1","{""sulfur"":0.3059745765943926,""calorie"":4555.677512727134,""moisture"":14.48590534309858,""ash_content"":10.60372853510527}","2025-11-09T23:02:33.359Z","2025-11-09T23:02:33.359Z"
"cmhsbjlw0015gmafto61zoezq","LP-0146","Loading Point 146","cmhsbjl8j00m8maft2vjcqe37",,true,7,-3.828334746067267,116.4548545981443,"Seam-B1","{""sulfur"":0.571497454928264,""calorie"":5258.588476320095,""moisture"":9.583704224025293,""ash_content"":10.03386798506453}","2025-11-09T23:02:33.360Z","2025-11-09T23:02:33.360Z"
"cmhsbjlw1015imaftdxwx27i1","LP-0147","Loading Point 147","cmhsbjl8u00mgmaftbc19zpnh",,true,9,-3.665463706185564,117.9314591802589,"Seam-A2","{""sulfur"":0.5847246968910433,""calorie"":4630.089044620021,""moisture"":15.8808688744701,""ash_content"":9.499165124198544}","2025-11-09T23:02:33.362Z","2025-11-09T23:02:33.362Z"
"cmhsbjlw3015kmaft35m6mxjh","LP-0148","Loading Point 148","cmhsbjl8y00mjmaftlibsaesk",,true,5,-3.818498534984744,118.210355827195,"Seam-C1","{""sulfur"":0.7937812266870139,""calorie"":5037.408886128478,""moisture"":19.71684543652813,""ash_content"":8.803973523928722}","2025-11-09T23:02:33.363Z","2025-11-09T23:02:33.363Z"
"cmhsbjlw4015mmaft6dt4t9jd","LP-0149","Loading Point 149","cmhsbjl9100mlmaftj6yft1yk",,true,7,-3.010939324460707,117.4456378589831,"Seam-D","{""sulfur"":0.677034542565758,""calorie"":5195.910771761076,""moisture"":8.01224979577794,""ash_content"":11.55052319097296}","2025-11-09T23:02:33.364Z","2025-11-09T23:02:33.364Z"
"cmhsbjlw6015omafty4162xc5","LP-0150","Loading Point 150","cmhsbjl9b00msmaftgxlkicxd",,true,7,-2.917534526703299,118.894164435656,"Seam-A1","{""sulfur"":0.615420588045453,""calorie"":5790.408375391073,""moisture"":17.64048982238948,""ash_content"":9.337577305972214}","2025-11-09T23:02:33.366Z","2025-11-09T23:02:33.366Z"
"cmhsbjlw8015qmaftf6n67wiu","LP-0151","Loading Point 151","cmhsbjl9c00mtmaft3m8mqlc0",,true,9,-4.826909001340772,115.2655871461541,"Seam-D","{""sulfur"":0.7923673755628382,""calorie"":5343.816886087012,""moisture"":9.829095747565514,""ash_content"":6.052784977693708}","2025-11-09T23:02:33.368Z","2025-11-09T23:02:33.368Z"
"cmhsbjlw9015smaftbo9la960","LP-0152","Loading Point 152","cmhsbjl9p00n2maftcf7kkqjg",,true,6,-2.512304414302031,116.9663010331483,"Seam-B1","{""sulfur"":0.4517527713322643,""calorie"":5866.436956434846,""moisture"":9.407986894989898,""ash_content"":6.752473703118026}","2025-11-09T23:02:33.370Z","2025-11-09T23:02:33.370Z"
"cmhsbjlwb015umafts0a47jn9","LP-0153","Loading Point 153","cmhsbjla500n7maftwppt822j",,true,8,-5.159504190765007,119.2219475401901,"Seam-B2","{""sulfur"":0.574085807033533,""calorie"":5321.729991005986,""moisture"":18.54943674910529,""ash_content"":9.634496000269626}","2025-11-09T23:02:33.371Z","2025-11-09T23:02:33.371Z"
"cmhsbjlwc015wmaft1aws04gp","LP-0154","Loading Point 154","cmhsbjlad00nbmaft0x99qpla",,true,9,-5.383834180175795,116.9847219233306,"Seam-B2","{""sulfur"":0.5737200057900119,""calorie"":5818.580864468142,""moisture"":9.465380982580069,""ash_content"":4.428381601597373}","2025-11-09T23:02:33.372Z","2025-11-09T23:02:33.372Z"
"cmhsbjlwd015ymaftp8ma8hxw","LP-0155","Loading Point 155","cmhsbjlag00ncmaftbeykzek2",,true,8,-3.938000330439797,116.2864232439774,"Seam-B1","{""sulfur"":0.3120079048050122,""calorie"":4554.50269613569,""moisture"":9.664109933110531,""ash_content"":5.131636039435151}","2025-11-09T23:02:33.374Z","2025-11-09T23:02:33.374Z"
"cmhsbjlwf0160maft13p6barn","LP-0156","Loading Point 156","cmhsbjlbu00nxmaft07seaad6",,true,6,-2.995325221206159,115.6373714187886,"Seam-B2","{""sulfur"":0.5055906196786426,""calorie"":4994.674915647215,""moisture"":8.068479758577759,""ash_content"":6.537424506149756}","2025-11-09T23:02:33.375Z","2025-11-09T23:02:33.375Z"
"cmhsbjlwg0162maft10rewj4w","LP-0157","Loading Point 157","cmhsbjlbw00nymaft2twuz2nh",,true,3,-5.456956055280152,115.6347671496839,"Seam-A2","{""sulfur"":0.6923296480592692,""calorie"":4531.1424450438,""moisture"":18.19622590070913,""ash_content"":8.27829911294392}","2025-11-09T23:02:33.377Z","2025-11-09T23:02:33.377Z"
"cmhsbjlwi0164maftc5dy3nvh","LP-0158","Loading Point 158","cmhsbjlcb00o4maftr5ljy2nf",,true,7,-3.818218570044691,118.7048129701485,"Seam-D","{""sulfur"":0.3734569979066472,""calorie"":4843.788482411075,""moisture"":11.60860672554451,""ash_content"":11.28417411375004}","2025-11-09T23:02:33.378Z","2025-11-09T23:02:33.378Z"
"cmhsbjlwj0166maft385zbzuc","LP-0159","Loading Point 159","cmhsbjlcy00ofmaftkaowi7k1",,true,8,-4.296736790125689,117.1899985141646,"Seam-C1","{""sulfur"":0.7582360616103265,""calorie"":5076.228208942197,""moisture"":13.20478707174735,""ash_content"":6.951678807003038}","2025-11-09T23:02:33.380Z","2025-11-09T23:02:33.380Z"
"cmhsbjlwl0168maft91heeoq8","LP-0160","Loading Point 160","cmhsbjld400oimaft1bu6j357",,true,6,-3.48835718149811,115.5626163512751,"Seam-C1","{""sulfur"":0.4970953383929709,""calorie"":5058.107195297109,""moisture"":8.599595580071298,""ash_content"":10.08325578244655}","2025-11-09T23:02:33.381Z","2025-11-09T23:02:33.381Z"
"cmhsbjlwn016amaftlbnfozle","LP-0161","Loading Point 161","cmhsbjldd00ommaftp51hua2k",,true,7,-5.073208682105981,118.7172337095252,"Seam-B2","{""sulfur"":0.5734432093814976,""calorie"":5373.001973858662,""moisture"":11.73905708075653,""ash_content"":5.263833770905478}","2025-11-09T23:02:33.383Z","2025-11-09T23:02:33.383Z"
"cmhsbjlwo016cmaftfvtv5689","LP-0162","Loading Point 162","cmhsbjlds00owmaft9j257nzv",,true,3,-2.881067487049902,117.6099168788546,"Seam-B1","{""sulfur"":0.531137492532261,""calorie"":4815.816767542517,""moisture"":11.33660614510423,""ash_content"":4.325930978274549}","2025-11-09T23:02:33.385Z","2025-11-09T23:02:33.385Z"
"cmhsbjlwq016emaftd2lyoxcz","LP-0163","Loading Point 163","cmhsbjldv00oymaft5q3qizb9",,true,3,-3.910141638714144,118.6041784768572,"Seam-A1","{""sulfur"":0.3243439947570269,""calorie"":4945.224857063558,""moisture"":13.85612950125697,""ash_content"":7.57856770235283}","2025-11-09T23:02:33.386Z","2025-11-09T23:02:33.386Z"
"cmhsbjlwr016gmaftbtxz2uy8","LP-0164","Loading Point 164","cmhsbjldw00ozmafteu2ak4gm",,true,3,-3.612946668403638,117.449366834655,"Seam-C2","{""sulfur"":0.6954448219411179,""calorie"":5032.634591697874,""moisture"":12.39860918223638,""ash_content"":5.025845174472954}","2025-11-09T23:02:33.388Z","2025-11-09T23:02:33.388Z"
"cmhsbjlwt016imaftamhyeqvj","LP-0165","Loading Point 165","cmhsbjled00p7maftuqkiaz5z",,true,3,-3.737418039614883,115.6306051633672,"Seam-A1","{""sulfur"":0.27020269720291,""calorie"":4877.675798940408,""moisture"":17.56746577517151,""ash_content"":8.186978105893367}","2025-11-09T23:02:33.389Z","2025-11-09T23:02:33.389Z"
"cmhsbjlwu016kmaft601axs4y","LP-0166","Loading Point 166","cmhsbjlek00pbmafteu42cv30",,true,8,-2.937257490446921,115.3647375439375,"Seam-D","{""sulfur"":0.3172568575255976,""calorie"":4832.723323201897,""moisture"":10.23033283154485,""ash_content"":9.830058510462228}","2025-11-09T23:02:33.390Z","2025-11-09T23:02:33.390Z"
"cmhsbjlww016mmaftu86duttv","LP-0167","Loading Point 167","cmhsbjlem00pcmaft280wq111",,true,9,-3.234714030500273,119.2213615172066,"Seam-B1","{""sulfur"":0.6169875253089104,""calorie"":4983.012381118452,""moisture"":12.75853214434433,""ash_content"":10.16294276214947}","2025-11-09T23:02:33.392Z","2025-11-09T23:02:33.392Z"
"cmhsbjlwx016omaftlwqin1n3","LP-0168","Loading Point 168","cmhsbjleo00pdmafttawec34m",,true,4,-2.960683306387907,117.9512349799761,"Seam-B2","{""sulfur"":0.7637377688369194,""calorie"":5836.642505275361,""moisture"":18.69609962156874,""ash_content"":6.738673031042811}","2025-11-09T23:02:33.393Z","2025-11-09T23:02:33.393Z"
"cmhsbjlwy016qmaft214bwfre","LP-0169","Loading Point 169","cmhsbjlev00pjmaftukn4pvyv",,true,9,-5.123332809649439,118.4831828131441,"Seam-C2","{""sulfur"":0.2501100177548287,""calorie"":5242.260992424794,""moisture"":17.32744754029526,""ash_content"":9.757849768141806}","2025-11-09T23:02:33.395Z","2025-11-09T23:02:33.395Z"
"cmhsbjlx0016smaftophojgpj","LP-0170","Loading Point 170","cmhsbjlew00pkmafty17etg15",,true,7,-3.926635371858117,118.9103925580014,"Seam-C2","{""sulfur"":0.4057425263482802,""calorie"":5698.217792485677,""moisture"":12.944416485922,""ash_content"":8.83534194557082}","2025-11-09T23:02:33.396Z","2025-11-09T23:02:33.396Z"
"cmhsbjlx1016umaft3brhigv8","LP-0171","Loading Point 171","cmhsbjlez00pmmaftzx2q9nnx",,true,4,-3.585719678492754,116.3597541059066,"Seam-B1","{""sulfur"":0.2808117098740346,""calorie"":5273.816014582223,""moisture"":17.30512499790656,""ash_content"":5.553275937050742}","2025-11-09T23:02:33.397Z","2025-11-09T23:02:33.397Z"
"cmhsbjlx4016wmaft7wkfp3df","LP-0172","Loading Point 172","cmhsbjlf000pnmaftm5yrjp1i",,true,4,-3.36397222973961,116.2833626949661,"Seam-C2","{""sulfur"":0.3754956450902455,""calorie"":4862.011740343523,""moisture"":17.6551842914648,""ash_content"":8.097397223474658}","2025-11-09T23:02:33.400Z","2025-11-09T23:02:33.400Z"
"cmhsbjlx5016ymaftx9x4ljui","LP-0173","Loading Point 173","cmhsbjlf300ppmafti77iajui",,true,4,-4.60676133595223,116.7106083781537,"Seam-D","{""sulfur"":0.3828316510045511,""calorie"":4955.151651071073,""moisture"":11.83711651946965,""ash_content"":10.1155762290409}","2025-11-09T23:02:33.402Z","2025-11-09T23:02:33.402Z"
"cmhsbjlx70170maftu92wy7bi","LP-0174","Loading Point 174","cmhsbjlfb00pvmaft6as9a5s8",,false,9,-4.028409888191722,116.9423281107161,"Seam-D","{""sulfur"":0.6270599882729335,""calorie"":5180.895443200015,""moisture"":9.427609020669024,""ash_content"":9.058638715463085}","2025-11-09T23:02:33.403Z","2025-11-09T23:02:33.403Z"
"cmhsbjlx80172maftjule9ait","LP-0175","Loading Point 175","cmhsbjlfd00pxmaft3bhw857w",,true,3,-3.688443730270261,119.2548462836942,"Seam-C1","{""sulfur"":0.4502035217974221,""calorie"":5728.395636225916,""moisture"":14.41082661992203,""ash_content"":7.917671295863263}","2025-11-09T23:02:33.404Z","2025-11-09T23:02:33.404Z"
"cmhsbjlxa0174maftebuh1j04","LP-0176","Loading Point 176","cmhsbjlfg00pzmaftvo96adsx",,true,3,-3.564089197113486,115.7787774195027,"Seam-C1","{""sulfur"":0.3393589095211966,""calorie"":5275.187361128828,""moisture"":8.751578311978328,""ash_content"":7.830461782752328}","2025-11-09T23:02:33.406Z","2025-11-09T23:02:33.406Z"
"cmhsbjlxb0176maftuvchb8pg","LP-0177","Loading Point 177","cmhsbjlfm00q3maftg8xhq7wp",,true,7,-2.896596357345453,119.1452671207649,"Seam-C2","{""sulfur"":0.2395313194841625,""calorie"":5201.941646956134,""moisture"":12.10281674517758,""ash_content"":8.021675252394845}","2025-11-09T23:02:33.408Z","2025-11-09T23:02:33.408Z"
"cmhsbjlxd0178maftdcs80jdf","LP-0178","Loading Point 178","cmhsbjlfo00q5maftkime8tvj",,true,6,-4.292579838227174,119.8002593580082,"Seam-B2","{""sulfur"":0.5558870755316605,""calorie"":5365.004004324351,""moisture"":18.9489539146373,""ash_content"":11.71139806255568}","2025-11-09T23:02:33.409Z","2025-11-09T23:02:33.409Z"
"cmhsbjlxe017amaftna6w6p23","LP-0179","Loading Point 179","cmhsbjlfr00q7maftpbq22f39",,true,5,-4.950901764613831,116.7299981152781,"Seam-B1","{""sulfur"":0.6595373690178512,""calorie"":5962.93840150766,""moisture"":10.07485497395722,""ash_content"":5.277951744254677}","2025-11-09T23:02:33.410Z","2025-11-09T23:02:33.410Z"
"cmhsbjlxf017cmaft2486c720","LP-0180","Loading Point 180","cmhsbjlft00q9maftm5u5pf8x",,true,3,-4.598657305494342,116.0472137429878,"Seam-A1","{""sulfur"":0.2505345452378823,""calorie"":4734.57890693316,""moisture"":9.14072430937614,""ash_content"":4.847631665848725}","2025-11-09T23:02:33.412Z","2025-11-09T23:02:33.412Z"
"cmhsbjlxh017emaftuxqwnci2","LP-0181","Loading Point 181","cmhsbjlfx00qcmaftooymyxot",,true,3,-3.802436438629526,119.9871564422207,"Seam-D","{""sulfur"":0.4072324162082758,""calorie"":5408.422897341204,""moisture"":12.29321516333767,""ash_content"":11.49812945593049}","2025-11-09T23:02:33.413Z","2025-11-09T23:02:33.413Z"
"cmhsbjlxi017gmaft6rqat7tn","LP-0182","Loading Point 182","cmhsbjlfz00qdmaft567lvbm8",,true,8,-4.173615105623434,117.4154172157529,"Seam-B2","{""sulfur"":0.7612978453214911,""calorie"":5686.596774736779,""moisture"":9.216406083183518,""ash_content"":8.412177804954917}","2025-11-09T23:02:33.415Z","2025-11-09T23:02:33.415Z"
"cmhsbjlxk017imaftq56u50cs","LP-0183","Loading Point 183","cmhsbjlg900qlmaftgtlgp2uu",,true,7,-3.802244375959194,119.5670068519959,"Seam-A2","{""sulfur"":0.3740763319664177,""calorie"":5019.546492906505,""moisture"":19.49157070268388,""ash_content"":8.69599244104495}","2025-11-09T23:02:33.417Z","2025-11-09T23:02:33.417Z"
"cmhsbjlxm017kmaftyg7me8xx","LP-0184","Loading Point 184","cmhsbjlgg00qqmaftu4oeeqmo",,true,3,-4.735893107823636,117.4942433283356,"Seam-A2","{""sulfur"":0.332026983357632,""calorie"":5396.272196547235,""moisture"":11.15416600083723,""ash_content"":9.105495560090745}","2025-11-09T23:02:33.418Z","2025-11-09T23:02:33.418Z"
"cmhsbjlxo017mmaft50wojzed","LP-0185","Loading Point 185","cmhsbjlgi00qrmaftmox9xq91",,true,8,-3.84217819505216,116.7804966894209,"Seam-B1","{""sulfur"":0.260037435411356,""calorie"":5003.527878617726,""moisture"":11.64605505476781,""ash_content"":7.098868675669792}","2025-11-09T23:02:33.420Z","2025-11-09T23:02:33.420Z"
"cmhsbjlxp017omaft2264csew","LP-0186","Loading Point 186","cmhsbjlgm00qumaft6z61msqq",,true,3,-3.928950540119735,119.4259584869707,"Seam-A1","{""sulfur"":0.5418360139883145,""calorie"":4749.146927068749,""moisture"":19.09532751547929,""ash_content"":7.182028115094733}","2025-11-09T23:02:33.421Z","2025-11-09T23:02:33.421Z"
"cmhsbjlxq017qmaftor794cx4","LP-0187","Loading Point 187","cmhsbjlgn00qvmaft1qqher0x",,true,9,-4.412271965496458,116.0870969386499,"Seam-A2","{""sulfur"":0.3164284999670283,""calorie"":5167.476917695934,""moisture"":13.07067745648669,""ash_content"":5.291816200402232}","2025-11-09T23:02:33.423Z","2025-11-09T23:02:33.423Z"
"cmhsbjlxs017smaft5et5e7ag","LP-0188","Loading Point 188","cmhsbjlh000r4maftmudwno2f",,true,3,-2.77226121237502,115.1147513558822,"Seam-A2","{""sulfur"":0.2881049593153079,""calorie"":5640.499459297398,""moisture"":19.42887927442549,""ash_content"":7.854413008393058}","2025-11-09T23:02:33.424Z","2025-11-09T23:02:33.424Z"
"cmhsbjlxt017umaftt80c831h","LP-0189","Loading Point 189","cmhsbjlhh00rhmaft63qi27pf",,true,8,-5.391822515760996,115.3594371628551,"Seam-B2","{""sulfur"":0.5548538224026149,""calorie"":4899.576677505786,""moisture"":10.84694026342255,""ash_content"":10.71652135713863}","2025-11-09T23:02:33.426Z","2025-11-09T23:02:33.426Z"
"cmhsbjlxv017wmaftfv3bv25z","LP-0190","Loading Point 190","cmhsbjlhy00rtmaftk6oi347s",,true,9,-4.899725790678147,117.7572498359196,"Seam-C2","{""sulfur"":0.6094714200805991,""calorie"":5058.170485390983,""moisture"":9.385264580757115,""ash_content"":8.618405345255828}","2025-11-09T23:02:33.427Z","2025-11-09T23:02:33.427Z"
"cmhsbjlxw017ymaftm79d3ul0","LP-0191","Loading Point 191","cmhsbjli200rwmaftt2j5u1st",,true,8,-3.904711238288696,118.169948258531,"Seam-C1","{""sulfur"":0.4979040008145155,""calorie"":4589.77055660129,""moisture"":12.48205511914193,""ash_content"":9.968383932799687}","2025-11-09T23:02:33.429Z","2025-11-09T23:02:33.429Z"
"cmhsbjlxy0180maftyfwl9twp","LP-0192","Loading Point 192","cmhsbjli500rymaftnjlwf83w",,true,3,-4.477424614349769,117.9985464880528,"Seam-D","{""sulfur"":0.4899368846939856,""calorie"":5770.622901037113,""moisture"":17.47582871628782,""ash_content"":10.50166791688106}","2025-11-09T23:02:33.430Z","2025-11-09T23:02:33.430Z"
"cmhsbjlxz0182maftweauq1ea","LP-0193","Loading Point 193","cmhsbjlib00s2maftioyoq0rf",,true,4,-4.237216900493775,116.9549774644039,"Seam-C2","{""sulfur"":0.22810483047726,""calorie"":4969.33942090635,""moisture"":9.627675210182783,""ash_content"":6.799233244553328}","2025-11-09T23:02:33.431Z","2025-11-09T23:02:33.431Z"
"cmhsbjly10184mafthzcsc126","LP-0194","Loading Point 194","cmhsbjlih00s7maftwoxpp1ot",,true,8,-4.014070954367934,116.5238822217397,"Seam-B2","{""sulfur"":0.4669750809603386,""calorie"":5418.624430436881,""moisture"":13.60645593315014,""ash_content"":10.23573950880368}","2025-11-09T23:02:33.434Z","2025-11-09T23:02:33.434Z"
"cmhsbjly30186maft042uavpl","LP-0195","Loading Point 195","cmhsbjlij00s8maftn8gndi7r",,true,9,-4.369213940471696,116.9149741961559,"Seam-C2","{""sulfur"":0.4594739627741322,""calorie"":4729.828802333233,""moisture"":19.73106413116697,""ash_content"":9.231745925790497}","2025-11-09T23:02:33.435Z","2025-11-09T23:02:33.435Z"
"cmhsbjly50188maftz7cqj3ta","LP-0196","Loading Point 196","cmhsbjlil00samaftpif5y7n4",,true,8,-4.287647965316753,119.3590492440282,"Seam-D","{""sulfur"":0.224284023885207,""calorie"":4957.264946648593,""moisture"":14.96725263627154,""ash_content"":4.229262022675794}","2025-11-09T23:02:33.437Z","2025-11-09T23:02:33.437Z"
"cmhsbjly6018amaftx4epnhgp","LP-0197","Loading Point 197","cmhsbjlin00scmaftkjq4cj3k",,true,5,-3.705222250347636,116.8884360389605,"Seam-D","{""sulfur"":0.6506257654227695,""calorie"":5638.296165859417,""moisture"":16.86461305752922,""ash_content"":10.74030390699535}","2025-11-09T23:02:33.438Z","2025-11-09T23:02:33.438Z"
"cmhsbjly7018cmaftef5ethx8","LP-0198","Loading Point 198","cmhsbjlj100smmaftzk7md7oi",,true,7,-5.044210395657757,118.4068901389947,"Seam-B1","{""sulfur"":0.5671237381205281,""calorie"":4962.279146529567,""moisture"":13.70704962051967,""ash_content"":5.591266761114618}","2025-11-09T23:02:33.440Z","2025-11-09T23:02:33.440Z"
"cmhsbjly9018emaftnmvjh5wf","LP-0199","Loading Point 199","cmhsbjljh00symaftisjd6ru0",,true,3,-5.465900098339665,117.7487641652681,"Seam-A1","{""sulfur"":0.3029055408023184,""calorie"":4649.267143346477,""moisture"":16.883314744089,""ash_content"":8.452913008787052}","2025-11-09T23:02:33.441Z","2025-11-09T23:02:33.441Z"
"cmhsbjlya018gmaftmaun482f","LP-0200","Loading Point 200","cmhsbjljn00t2maftwq1j62lj",,true,6,-4.377253706781405,118.3690660315486,"Seam-C2","{""sulfur"":0.3796739581799944,""calorie"":5237.525845457891,""moisture"":12.22923014294773,""ash_content"":5.506149811898402}","2025-11-09T23:02:33.443Z","2025-11-09T23:02:33.443Z"
"cmhsbjlyc018imaftzkg04yi4","LP-0201","Loading Point 201","cmhsbjljr00t5maftnpmlzcha",,true,4,-2.768990447320924,115.4622489199842,"Seam-B1","{""sulfur"":0.6033778651833106,""calorie"":5551.682420448009,""moisture"":12.80286589287107,""ash_content"":6.526515653832019}","2025-11-09T23:02:33.444Z","2025-11-09T23:02:33.444Z"
"cmhsbjlyd018kmaftsa453gke","LP-0202","Loading Point 202","cmhsbjlju00t7maftgt3t0o6r",,true,3,-4.24116278256423,118.1254943315522,"Seam-D","{""sulfur"":0.5267348084563864,""calorie"":4515.14962647766,""moisture"":11.52595328749213,""ash_content"":5.979818120187145}","2025-11-09T23:02:33.445Z","2025-11-09T23:02:33.445Z"
"cmhsbjlye018mmaftz93m6vd2","LP-0203","Loading Point 203","cmhsbjlk100tdmaft88wgstx6",,true,8,-4.801920345117708,117.9971714005772,"Seam-C1","{""sulfur"":0.2208527403606676,""calorie"":4595.887807569672,""moisture"":8.211508834114387,""ash_content"":7.261524956190158}","2025-11-09T23:02:33.447Z","2025-11-09T23:02:33.447Z"
"cmhsbjlyg018omaftpahcw120","LP-0204","Loading Point 204","cmhsbjlk500tgmaftb1vaqcbk",,true,3,-4.895600463294859,118.4876358230146,"Seam-D","{""sulfur"":0.7829488672071516,""calorie"":4797.292231979568,""moisture"":17.3384691573607,""ash_content"":5.267718213879903}","2025-11-09T23:02:33.449Z","2025-11-09T23:02:33.449Z"
"cmhsbjlyi018qmaftp9djibnq","LP-0205","Loading Point 205","cmhsbjlk800timaft1jikmdvt",,true,5,-3.762702282201411,116.6782241375817,"Seam-C2","{""sulfur"":0.4669109578072209,""calorie"":5549.133595880749,""moisture"":14.35971585839136,""ash_content"":7.316012486337437}","2025-11-09T23:02:33.451Z","2025-11-09T23:02:33.451Z"
"cmhsbjlyk018smaftunt7kpqm","LP-0206","Loading Point 206","cmhsbjlk900tjmaft3rna530t",,true,4,-4.289240599420695,116.2460831507692,"Seam-A2","{""sulfur"":0.5964557735957537,""calorie"":5224.399556891816,""moisture"":16.18530316182714,""ash_content"":9.200816708698733}","2025-11-09T23:02:33.452Z","2025-11-09T23:02:33.452Z"
"cmhsbjlyl018umaftakdm5ik5","LP-0207","Loading Point 207","cmhsbjlkd00tmmafty4vbqr0i",,true,3,-3.597224339539908,119.7272254851514,"Seam-D","{""sulfur"":0.5747914420102573,""calorie"":4617.392375230506,""moisture"":12.09913406486961,""ash_content"":9.437570922464399}","2025-11-09T23:02:33.454Z","2025-11-09T23:02:33.454Z"
"cmhsbjlyn018wmaftijeghb7k","LP-0208","Loading Point 208","cmhsbjll800u8maftkvc2nch4",,true,7,-4.783049468496612,118.5292521516646,"Seam-B2","{""sulfur"":0.5334082061331951,""calorie"":5956.906864002092,""moisture"":16.50824432682283,""ash_content"":11.17687549367787}","2025-11-09T23:02:33.455Z","2025-11-09T23:02:33.455Z"
"cmhsbjlyo018ymaft04ap41en","LP-0209","Loading Point 209","cmhsbjllc00ubmaftfdlfp0hg",,true,6,-3.009577676027873,117.3060767735017,"Seam-A1","{""sulfur"":0.7794731343205359,""calorie"":5248.72924534701,""moisture"":11.64861489152302,""ash_content"":4.717539199144463}","2025-11-09T23:02:33.457Z","2025-11-09T23:02:33.457Z"
"cmhsbjlyq0190mafto537s5tb","LP-0210","Loading Point 210","cmhsbjllg00uemaftaohxd6cp",,true,8,-3.868224579719036,119.7361036913548,"Seam-B1","{""sulfur"":0.3144978942797382,""calorie"":5323.431346845395,""moisture"":11.06538776177461,""ash_content"":5.327530638776699}","2025-11-09T23:02:33.458Z","2025-11-09T23:02:33.458Z"
"cmhsbjlyr0192maft26v4mgew","LP-0211","Loading Point 211","cmhsbjllh00ufmaftrp45436m",,true,4,-3.324668688031468,118.2440254662861,"Seam-C2","{""sulfur"":0.7304902698369566,""calorie"":5952.033181114345,""moisture"":13.36391026857534,""ash_content"":8.896253385567976}","2025-11-09T23:02:33.459Z","2025-11-09T23:02:33.459Z"
"cmhsbjlys0194maft16e8qevi","LP-0212","Loading Point 212","cmhsbjllj00ugmaft9arylr8i",,true,6,-4.725884704302676,115.5952218260665,"Seam-B1","{""sulfur"":0.6797006305136133,""calorie"":4792.158564293307,""moisture"":11.20108930483137,""ash_content"":4.631496866244635}","2025-11-09T23:02:33.461Z","2025-11-09T23:02:33.461Z"
"cmhsbjlyu0196maftm81evwpz","LP-0213","Loading Point 213","cmhsbjlls00ummaftwr4s6645",,true,6,-4.263453059892441,119.2128206739345,"Seam-B2","{""sulfur"":0.4309037570221518,""calorie"":5136.789832107641,""moisture"":18.9568438775069,""ash_content"":8.479578392033348}","2025-11-09T23:02:33.462Z","2025-11-09T23:02:33.462Z"
"cmhsbjlyv0198maft65lgmgmo","LP-0214","Loading Point 214","cmhsbjllu00uomaft4lb4ge27",,true,9,-4.081427273695388,115.0416616377563,"Seam-A2","{""sulfur"":0.2265910195702992,""calorie"":5671.926469011249,""moisture"":8.479438268156748,""ash_content"":9.170558235107588}","2025-11-09T23:02:33.464Z","2025-11-09T23:02:33.464Z"
"cmhsbjlyx019amaftgc1pnd7b","LP-0215","Loading Point 215","cmhsbjlmd00v2mafts4a2lker",,true,6,-2.769128566743337,116.1700451529315,"Seam-A1","{""sulfur"":0.4725309644152659,""calorie"":5756.944805778139,""moisture"":11.83995992394463,""ash_content"":9.463494634267974}","2025-11-09T23:02:33.466Z","2025-11-09T23:02:33.466Z"
"cmhsbjlyz019cmafta8121q88","LP-0216","Loading Point 216","cmhsbjlmf00v3maft1myqjm8w",,true,6,-4.383342947560373,119.6499364835029,"Seam-A2","{""sulfur"":0.6890659045135992,""calorie"":4764.06656285882,""moisture"":19.22035146925342,""ash_content"":4.600311362729805}","2025-11-09T23:02:33.468Z","2025-11-09T23:02:33.468Z"
"cmhsbjlz1019emaftoa47g031","LP-0217","Loading Point 217","cmhsbjlmy00vhmaftfsnq55kk",,true,7,-2.995988874672556,117.1113821036797,"Seam-D","{""sulfur"":0.7086953456468863,""calorie"":4794.675132902607,""moisture"":8.302234691178931,""ash_content"":8.116475399140269}","2025-11-09T23:02:33.469Z","2025-11-09T23:02:33.469Z"
"cmhsbjlz2019gmaftcjzy987o","LP-0218","Loading Point 218","cmhsbjln600vnmaftmwr70krk",,true,9,-4.796642947349928,117.0141246119776,"Seam-C2","{""sulfur"":0.2012202422984292,""calorie"":5095.562799226073,""moisture"":14.49493243289774,""ash_content"":6.591290146970255}","2025-11-09T23:02:33.471Z","2025-11-09T23:02:33.471Z"
"cmhsbjlz4019imaft2vmjmorg","LP-0219","Loading Point 219","cmhsbjlni00vwmaftfnfq7wut",,true,4,-4.346787755598461,116.7669192235368,"Seam-A2","{""sulfur"":0.774374138992963,""calorie"":5814.129924974551,""moisture"":10.59186172013025,""ash_content"":7.36059059187143}","2025-11-09T23:02:33.472Z","2025-11-09T23:02:33.472Z"
"cmhsbjlz5019kmaft2qjgqxmb","LP-0220","Loading Point 220","cmhsbjlnq00w2maftl4f99lny",,true,5,-4.741221762693363,118.1847384043441,"Seam-A1","{""sulfur"":0.4348021403358098,""calorie"":5137.20284543967,""moisture"":18.25669492454032,""ash_content"":10.57405916840862}","2025-11-09T23:02:33.474Z","2025-11-09T23:02:33.474Z"
"cmhsbjlz7019mmaft7ya7x5g0","LP-0221","Loading Point 221","cmhsbjlnz00w8mafti8qdlg25",,true,5,-3.865817336141702,115.3341214832138,"Seam-A2","{""sulfur"":0.3180145383566422,""calorie"":5427.118884100583,""moisture"":9.572461721375008,""ash_content"":7.811070244463291}","2025-11-09T23:02:33.475Z","2025-11-09T23:02:33.475Z"
"cmhsbjlz8019omaftcicyql7h","LP-0222","Loading Point 222","cmhsbjlo100wamafteldoo1vz",,true,3,-2.868193974037288,116.8749478384839,"Seam-B1","{""sulfur"":0.6306767006389545,""calorie"":5742.740355574871,""moisture"":15.35538812739999,""ash_content"":10.57617317025937}","2025-11-09T23:02:33.477Z","2025-11-09T23:02:33.477Z"
"cmhsbjlza019qmaft7309zz8k","LP-0223","Loading Point 223","cmhsbjlo400wcmaftdcn1ugi3",,true,6,-5.267286777118633,117.2155212094325,"Seam-B2","{""sulfur"":0.3134235103740178,""calorie"":4760.738168529712,""moisture"":13.06839064646472,""ash_content"":8.015081567343604}","2025-11-09T23:02:33.478Z","2025-11-09T23:02:33.478Z"
"cmhsbjlzb019smaftcbs6u5dz","LP-0224","Loading Point 224","cmhsbjlo600wemaftj2qt70qu",,true,5,-3.578228345620327,115.6968867088102,"Seam-A1","{""sulfur"":0.6756038885329884,""calorie"":5590.905525077037,""moisture"":9.494220618292161,""ash_content"":5.948212219116011}","2025-11-09T23:02:33.480Z","2025-11-09T23:02:33.480Z"
"cmhsbjlzd019umaft761l1p22","LP-0225","Loading Point 225","cmhsbjloe00wkmafta6pa8ee1",,true,3,-5.411059933445209,117.6409048259831,"Seam-A2","{""sulfur"":0.4756025670186831,""calorie"":4954.9203859207,""moisture"":12.40760459131319,""ash_content"":9.039232897194767}","2025-11-09T23:02:33.481Z","2025-11-09T23:02:33.481Z"
"cmhsbjlzf019wmaftuefjbvvq","LP-0226","Loading Point 226","cmhsbjlog00wlmaft4vcm8jik",,false,3,-4.328366309422271,116.9760127040122,"Seam-D","{""sulfur"":0.3201348710923045,""calorie"":5048.110915709159,""moisture"":12.85523179593245,""ash_content"":6.585991695375046}","2025-11-09T23:02:33.484Z","2025-11-09T23:02:33.484Z"
"cmhsbjlzh019ymaftaukiup2a","LP-0227","Loading Point 227","cmhsbjloo00wsmaftv43z6h26",,true,4,-5.009612153110631,116.8691461846895,"Seam-A1","{""sulfur"":0.5142255960155206,""calorie"":4762.167771176758,""moisture"":19.24836776496426,""ash_content"":8.681558241683032}","2025-11-09T23:02:33.485Z","2025-11-09T23:02:33.485Z"
"cmhsbjlzi01a0maftrw7601b2","LP-0228","Loading Point 228","cmhsbjlot00wvmaft1k1yr3hn",,true,7,-5.119454821259726,118.7969721678884,"Seam-A2","{""sulfur"":0.3646873658805915,""calorie"":5161.145576806075,""moisture"":19.85300465338112,""ash_content"":7.641637007191743}","2025-11-09T23:02:33.487Z","2025-11-09T23:02:33.487Z"
"cmhsbjlzk01a2maft7bohp9e7","LP-0229","Loading Point 229","cmhsbjlou00wwmaftx5qimjmv",,true,4,-5.436228011692807,119.5462215488253,"Seam-C2","{""sulfur"":0.5199317881110538,""calorie"":4822.336009428081,""moisture"":18.57455440789079,""ash_content"":5.247315094744131}","2025-11-09T23:02:33.488Z","2025-11-09T23:02:33.488Z"
"cmhsbjlzl01a4maftdddlkm83","LP-0230","Loading Point 230","cmhsbjlpg00xcmaftbtggmgo2",,true,8,-4.897387906461436,117.6925676082572,"Seam-B2","{""sulfur"":0.6420444938580676,""calorie"":5437.824466162478,""moisture"":14.43903809352672,""ash_content"":11.343638649281}","2025-11-09T23:02:33.490Z","2025-11-09T23:02:33.490Z"
"cmhsbjlzn01a6maftzb96bnkj","LP-0231","Loading Point 231","cmhsbjl1200gtmaft1ubw7644",,true,6,-5.126346493931783,116.4892506563749,"Seam-B2","{""sulfur"":0.4624629257402285,""calorie"":4786.925647135835,""moisture"":13.33158195354286,""ash_content"":11.65653489567113}","2025-11-09T23:02:33.491Z","2025-11-09T23:02:33.491Z"
"cmhsbjlzo01a8maft0f10vp0v","LP-0232","Loading Point 232","cmhsbjl1f00h0maft2huv3pkm",,true,8,-3.247449176034593,116.560740533159,"Seam-A1","{""sulfur"":0.4511047891986373,""calorie"":5421.125785059375,""moisture"":10.20855700179537,""ash_content"":8.560791132912634}","2025-11-09T23:02:33.493Z","2025-11-09T23:02:33.493Z"
"cmhsbjlzq01aamaftknen09it","LP-0233","Loading Point 233","cmhsbjl1k00h4maftgx0bbbu9",,false,7,-2.507917913744262,115.7123260809775,"Seam-A1","{""sulfur"":0.2144440516796976,""calorie"":5271.779575601715,""moisture"":16.02838705294882,""ash_content"":11.97579331251404}","2025-11-09T23:02:33.494Z","2025-11-09T23:02:33.494Z"
"cmhsbjlzr01acmafthf9patod","LP-0234","Loading Point 234","cmhsbjl2000hgmaftuyyvbplz",,true,9,-4.552861058496362,116.5519436117967,"Seam-C1","{""sulfur"":0.5095047262893397,""calorie"":5934.501858946973,""moisture"":18.27719727670024,""ash_content"":10.14523567228476}","2025-11-09T23:02:33.496Z","2025-11-09T23:02:33.496Z"
"cmhsbjlzt01aemafturgvuzwl","LP-0235","Loading Point 235","cmhsbjl2p00hymaft49un52lz",,true,8,-4.752246669777354,116.8134215547218,"Seam-C2","{""sulfur"":0.2440747504599163,""calorie"":5156.773947996287,""moisture"":15.19254198988443,""ash_content"":10.44843712124168}","2025-11-09T23:02:33.497Z","2025-11-09T23:02:33.497Z"
"cmhsbjlzv01agmaftc0dddrya","LP-0236","Loading Point 236","cmhsbjl2t00i1maft001104sc",,true,6,-4.219653190266748,115.0769229460373,"Seam-A1","{""sulfur"":0.6090439887912444,""calorie"":4600.42429730788,""moisture"":10.67179256567588,""ash_content"":10.30330444416445}","2025-11-09T23:02:33.499Z","2025-11-09T23:02:33.499Z"
"cmhsbjlzx01aimaft6zt3llvp","LP-0237","Loading Point 237","cmhsbjl3000i6maftbwryncan",,true,3,-3.840284813528277,115.1992704181437,"Seam-C2","{""sulfur"":0.7749861631077688,""calorie"":5752.070960674891,""moisture"":17.45705723913729,""ash_content"":4.702693034638827}","2025-11-09T23:02:33.501Z","2025-11-09T23:02:33.501Z"
"cmhsbjlzy01akmaft4n5p6rai","LP-0238","Loading Point 238","cmhsbjl3100i7maft7uyztqkh",,true,3,-5.115562760740787,119.2371793419034,"Seam-A2","{""sulfur"":0.5267135784761959,""calorie"":5410.43770224431,""moisture"":18.92174423127715,""ash_content"":11.67531040684634}","2025-11-09T23:02:33.503Z","2025-11-09T23:02:33.503Z"
"cmhsbjm0001ammafteu1fxtdk","LP-0239","Loading Point 239","cmhsbjl3400i9maftjjbg1dsl",,true,7,-5.452432827288479,116.6631705965593,"Seam-D","{""sulfur"":0.5597798399876511,""calorie"":4633.616712806593,""moisture"":17.28688682847359,""ash_content"":5.566467135849717}","2025-11-09T23:02:33.504Z","2025-11-09T23:02:33.504Z"
"cmhsbjm0101aomafttz6or11q","LP-0240","Loading Point 240","cmhsbjl3o00iomafti6ytkd5z",,true,4,-4.253285707246707,119.7358306448162,"Seam-A2","{""sulfur"":0.7555194132599694,""calorie"":5582.525709936295,""moisture"":17.72602054508145,""ash_content"":4.222083573235995}","2025-11-09T23:02:33.505Z","2025-11-09T23:02:33.505Z"
"cmhsbjm0301aqmaftn1oaijif","LP-0241","Loading Point 241","cmhsbjl3r00iqmaft9rpm9lx2",,true,8,-5.087864018989826,116.829628328919,"Seam-D","{""sulfur"":0.3848619254292094,""calorie"":4509.109287570109,""moisture"":17.69285645401683,""ash_content"":6.12574258137483}","2025-11-09T23:02:33.507Z","2025-11-09T23:02:33.507Z"
"cmhsbjm0401asmaftjctf51km","LP-0242","Loading Point 242","cmhsbjl3v00itmaft6cjod7he",,true,5,-5.321356362936623,117.951738999851,"Seam-B2","{""sulfur"":0.4127178027887942,""calorie"":5756.342607906033,""moisture"":18.4973956112585,""ash_content"":11.10267095032546}","2025-11-09T23:02:33.508Z","2025-11-09T23:02:33.508Z"
"cmhsbjm0501aumaftxupliz1a","LP-0243","Loading Point 243","cmhsbjl4a00j4maftmdl364la",,true,5,-3.061799125676106,118.5664904928448,"Seam-D","{""sulfur"":0.3993748695358271,""calorie"":5869.405355101693,""moisture"":9.008357936325165,""ash_content"":4.287383175868509}","2025-11-09T23:02:33.510Z","2025-11-09T23:02:33.510Z"
"cmhsbjm0701awmaftpqaup7pa","LP-0244","Loading Point 244","cmhsbjl4m00jcmaft72mluut9",,false,9,-3.12426875812236,119.9960528349688,"Seam-C2","{""sulfur"":0.5819071025839152,""calorie"":5653.801205415581,""moisture"":10.48383531161559,""ash_content"":5.408119383335368}","2025-11-09T23:02:33.511Z","2025-11-09T23:02:33.511Z"
"cmhsbjm0801aymaftqp34jgrf","LP-0245","Loading Point 245","cmhsbjl4p00jemaft9i2n2wf7",,true,7,-2.910729448465354,117.4462731676606,"Seam-A1","{""sulfur"":0.5181417280477983,""calorie"":5256.259098723988,""moisture"":17.62914601866139,""ash_content"":9.853166706320163}","2025-11-09T23:02:33.513Z","2025-11-09T23:02:33.513Z"
"cmhsbjm0a01b0maftr810bu41","LP-0246","Loading Point 246","cmhsbjl4y00jkmaft0f8g3wll",,true,7,-2.903069948745457,117.9234554842396,"Seam-B1","{""sulfur"":0.2771233399331375,""calorie"":4729.171262297012,""moisture"":16.80208720357822,""ash_content"":7.699203592642945}","2025-11-09T23:02:33.514Z","2025-11-09T23:02:33.514Z"
"cmhsbjm0c01b2mafttub5y682","LP-0247","Loading Point 247","cmhsbjl4z00jlmaftq1l7o9k6",,true,5,-4.339789774184965,118.9091578578488,"Seam-D","{""sulfur"":0.6515109420963086,""calorie"":5049.368571962938,""moisture"":17.11896150823525,""ash_content"":4.90809025859487}","2025-11-09T23:02:33.516Z","2025-11-09T23:02:33.516Z"
"cmhsbjm0e01b4maft71i54dpc","LP-0248","Loading Point 248","cmhsbjl5100jmmaftqhdvf3e1",,true,8,-4.922781086862508,119.9627971303624,"Seam-B2","{""sulfur"":0.4875800792962338,""calorie"":5699.901349764868,""moisture"":15.21012505142515,""ash_content"":6.819233829013237}","2025-11-09T23:02:33.518Z","2025-11-09T23:02:33.518Z"
"cmhsbjm0f01b6maft31u4i1ci","LP-0249","Loading Point 249","cmhsbjl5a00jtmaftydrkrnme",,false,7,-2.520878008194268,115.7848616357005,"Seam-B1","{""sulfur"":0.4117246556389953,""calorie"":4852.191398819918,""moisture"":13.13360130612122,""ash_content"":6.923239857956053}","2025-11-09T23:02:33.520Z","2025-11-09T23:02:33.520Z"
"cmhsbjm0h01b8maftnizgnky9","LP-0250","Loading Point 250","cmhsbjl5n00k3maftfhfgbd4a",,true,7,-5.444590438272615,119.2521918305482,"Seam-D","{""sulfur"":0.6482874352680885,""calorie"":5039.194769847256,""moisture"":11.65878566037884,""ash_content"":7.978616700679172}","2025-11-09T23:02:33.521Z","2025-11-09T23:02:33.521Z"
"cmhsbjm0i01bamaft69hlmxxc","LP-0251","Loading Point 251","cmhsbjl5u00k8mafttr488qqf",,true,7,-2.978125251626912,118.131448295114,"Seam-D","{""sulfur"":0.5253154326847704,""calorie"":5254.042275699714,""moisture"":13.98455705848865,""ash_content"":7.394382544239042}","2025-11-09T23:02:33.523Z","2025-11-09T23:02:33.523Z"
"cmhsbjm0k01bcmaftos19gc41","LP-0252","Loading Point 252","cmhsbjl5w00k9maft1a7a6lh4",,true,6,-3.871138011995587,117.5581407640372,"Seam-B1","{""sulfur"":0.3985797066630643,""calorie"":4922.535809511697,""moisture"":17.11133677902163,""ash_content"":8.825298017209187}","2025-11-09T23:02:33.524Z","2025-11-09T23:02:33.524Z"
"cmhsbjm0m01bemaftxcl0v594","LP-0253","Loading Point 253","cmhsbjl5y00kbmaftcc2w4o7l",,true,8,-4.156776155363082,115.094908210663,"Seam-C1","{""sulfur"":0.7287449164055817,""calorie"":4981.199338805976,""moisture"":11.7910252535278,""ash_content"":4.326040044602479}","2025-11-09T23:02:33.526Z","2025-11-09T23:02:33.526Z"
"cmhsbjm0o01bgmaftvwva5n34","LP-0254","Loading Point 254","cmhsbjl6200kemaftlztwrepv",,true,8,-2.57156219538094,116.5850315230558,"Seam-C2","{""sulfur"":0.7431976065005421,""calorie"":5619.451303644261,""moisture"":8.407620383951794,""ash_content"":9.07540781828364}","2025-11-09T23:02:33.528Z","2025-11-09T23:02:33.528Z"
"cmhsbjm0q01bimaftyh9uaja3","LP-0255","Loading Point 255","cmhsbjl6300kfmaft2tfnuus0",,true,7,-4.867186606757634,119.9728893155314,"Seam-B2","{""sulfur"":0.7495516686062746,""calorie"":5580.662934398962,""moisture"":11.1528770620727,""ash_content"":7.21321617923207}","2025-11-09T23:02:33.530Z","2025-11-09T23:02:33.530Z"
"cmhsbjm0r01bkmaftkvpmwe8z","LP-0256","Loading Point 256","cmhsbjl6e00kmmafto4599e0p",,true,5,-2.557977479469158,117.7467494078995,"Seam-C2","{""sulfur"":0.5042498189805786,""calorie"":5820.444488621356,""moisture"":16.12216168553454,""ash_content"":9.190416319256933}","2025-11-09T23:02:33.532Z","2025-11-09T23:02:33.532Z"
"cmhsbjm0t01bmmaftuka98rgu","LP-0257","Loading Point 257","cmhsbjl6k00krmaftpms3m5i0",,true,8,-4.277355736078546,116.5260671070978,"Seam-B1","{""sulfur"":0.2662351596669589,""calorie"":5254.722538001828,""moisture"":10.48732911439787,""ash_content"":5.814393825867132}","2025-11-09T23:02:33.534Z","2025-11-09T23:02:33.534Z"
"cmhsbjm0v01bomaftql13mmek","LP-0258","Loading Point 258","cmhsbjl7g00lfmaftat6c21hr",,true,6,-2.913553317210538,118.7670201862809,"Seam-A2","{""sulfur"":0.5075284107182224,""calorie"":5992.870574189938,""moisture"":17.99439557911206,""ash_content"":9.577590022422497}","2025-11-09T23:02:33.535Z","2025-11-09T23:02:33.535Z"
"cmhsbjm0x01bqmaftf06x846j","LP-0259","Loading Point 259","cmhsbjl7t00lomaftih016hyz",,true,8,-5.191505009366662,119.7136436791265,"Seam-A1","{""sulfur"":0.5455429238564821,""calorie"":5953.643793726723,""moisture"":11.76431451150045,""ash_content"":6.585640464127721}","2025-11-09T23:02:33.537Z","2025-11-09T23:02:33.537Z"
"cmhsbjm0y01bsmaft124624ms","LP-0260","Loading Point 260","cmhsbjl7u00lpmaftra23t5ar",,true,3,-2.812688624110462,119.2700999011712,"Seam-A1","{""sulfur"":0.6859086108191754,""calorie"":4527.391443447689,""moisture"":11.29964712936069,""ash_content"":4.491717419829035}","2025-11-09T23:02:33.538Z","2025-11-09T23:02:33.538Z"
"cmhsbjm0z01bumaft8chaq4dk","LP-0261","Loading Point 261","cmhsbjl8j00m8maft2vjcqe37",,true,3,-3.83332875826466,116.4540030839234,"Seam-D","{""sulfur"":0.4143264515995589,""calorie"":5133.477175258953,""moisture"":14.54576461121011,""ash_content"":10.41626960623914}","2025-11-09T23:02:33.540Z","2025-11-09T23:02:33.540Z"
"cmhsbjm1101bwmaftg22of6fo","LP-0262","Loading Point 262","cmhsbjl8u00mgmaftbc19zpnh",,true,6,-3.669045881216256,117.9313500783549,"Seam-A1","{""sulfur"":0.2973702263742589,""calorie"":5345.115999805897,""moisture"":19.99663687417891,""ash_content"":10.72929126045683}","2025-11-09T23:02:33.541Z","2025-11-09T23:02:33.541Z"
"cmhsbjm1301bymaftpadfrvbf","LP-0263","Loading Point 263","cmhsbjl8y00mjmaftlibsaesk",,true,9,-3.826437165591935,118.2118625098677,"Seam-B2","{""sulfur"":0.5370980459310505,""calorie"":5506.947020313142,""moisture"":10.46360089473649,""ash_content"":7.073137536420239}","2025-11-09T23:02:33.543Z","2025-11-09T23:02:33.543Z"
"cmhsbjm1401c0maftp01zveci","LP-0264","Loading Point 264","cmhsbjl9100mlmaftj6yft1yk",,true,6,-3.006116340554958,117.447173374513,"Seam-B1","{""sulfur"":0.7254301781390076,""calorie"":5521.597671098152,""moisture"":19.11945733928487,""ash_content"":4.93711655027866}","2025-11-09T23:02:33.545Z","2025-11-09T23:02:33.545Z"
"cmhsbjm1601c2maft6e8sn99n","LP-0265","Loading Point 265","cmhsbjl9b00msmaftgxlkicxd",,true,3,-2.92161629883889,118.895830529617,"Seam-C1","{""sulfur"":0.2931170095975598,""calorie"":5641.440831348497,""moisture"":17.75141364611834,""ash_content"":10.07600744754378}","2025-11-09T23:02:33.546Z","2025-11-09T23:02:33.546Z"
"cmhsbjm1801c4maftiwg7f3pm","LP-0266","Loading Point 266","cmhsbjl9c00mtmaft3m8mqlc0",,true,4,-4.823096542332914,115.2663560620135,"Seam-D","{""sulfur"":0.6049414708918622,""calorie"":4676.025445550459,""moisture"":10.96260104168748,""ash_content"":9.258235321020402}","2025-11-09T23:02:33.548Z","2025-11-09T23:02:33.548Z"
"cmhsbjm1a01c6maft7f3lm2hr","LP-0267","Loading Point 267","cmhsbjl9p00n2maftcf7kkqjg",,true,5,-2.509452390785628,116.962527440317,"Seam-A2","{""sulfur"":0.4643982933476374,""calorie"":5651.866544127715,""moisture"":13.96844816568278,""ash_content"":9.150799067871501}","2025-11-09T23:02:33.550Z","2025-11-09T23:02:33.550Z"
"cmhsbjm1c01c8maft888iej6b","LP-0268","Loading Point 268","cmhsbjla500n7maftwppt822j",,true,6,-5.160887073814083,119.2167072986253,"Seam-B2","{""sulfur"":0.2939698344470628,""calorie"":4981.300697512877,""moisture"":18.34227902801291,""ash_content"":11.7536972309561}","2025-11-09T23:02:33.552Z","2025-11-09T23:02:33.552Z"
"cmhsbjm1d01camaft525uuyie","LP-0269","Loading Point 269","cmhsbjlad00nbmaft0x99qpla",,true,7,-5.383326726915225,116.9845341174431,"Seam-B2","{""sulfur"":0.5917423320584673,""calorie"":5675.775557508289,""moisture"":9.492175213768665,""ash_content"":9.344273644774711}","2025-11-09T23:02:33.554Z","2025-11-09T23:02:33.554Z"
"cmhsbjm1f01ccmaftku3b1188","LP-0270","Loading Point 270","cmhsbjlag00ncmaftbeykzek2",,true,7,-3.938435007970245,116.2839804929091,"Seam-C2","{""sulfur"":0.3053097865026483,""calorie"":4857.802537720556,""moisture"":8.242837544188397,""ash_content"":8.703788204860057}","2025-11-09T23:02:33.555Z","2025-11-09T23:02:33.555Z"
"cmhsbjm1g01cemaftwu22ct69","LP-0271","Loading Point 271","cmhsbjlbu00nxmaft07seaad6",,true,9,-2.991126073465718,115.6370412219542,"Seam-D","{""sulfur"":0.3947036399068405,""calorie"":5727.778362109878,""moisture"":17.30882056402795,""ash_content"":9.409431057431256}","2025-11-09T23:02:33.557Z","2025-11-09T23:02:33.557Z"
"cmhsbjm1i01cgmaft9p7yy3s0","LP-0272","Loading Point 272","cmhsbjlbw00nymaft2twuz2nh",,true,5,-5.457671295662885,115.6362813740272,"Seam-A1","{""sulfur"":0.7705591382401309,""calorie"":4768.819878428276,""moisture"":14.11695900264739,""ash_content"":5.67977239603182}","2025-11-09T23:02:33.558Z","2025-11-09T23:02:33.558Z"
"cmhsbjm1j01cimafthl071na0","LP-0273","Loading Point 273","cmhsbjlcb00o4maftr5ljy2nf",,true,8,-3.816555925397718,118.7027039953549,"Seam-A1","{""sulfur"":0.7617857883254449,""calorie"":4517.96044199043,""moisture"":11.00839403958971,""ash_content"":7.639884384041915}","2025-11-09T23:02:33.560Z","2025-11-09T23:02:33.560Z"
"cmhsbjm1l01ckmaftrtxi8cdw","LP-0274","Loading Point 274","cmhsbjlcy00ofmaftkaowi7k1",,true,6,-4.291880628617966,117.1874953502162,"Seam-C2","{""sulfur"":0.2827344582610818,""calorie"":5819.10557753779,""moisture"":14.77942545285752,""ash_content"":6.563858413475883}","2025-11-09T23:02:33.561Z","2025-11-09T23:02:33.561Z"
"cmhsbjm1m01cmmaftjbmvxn0f","LP-0275","Loading Point 275","cmhsbjld400oimaft1bu6j357",,true,7,-3.493869171175028,115.567607271119,"Seam-B1","{""sulfur"":0.3234443466603122,""calorie"":4631.506494654943,""moisture"":14.67165458770289,""ash_content"":5.395356984655322}","2025-11-09T23:02:33.562Z","2025-11-09T23:02:33.562Z"
"cmhsbjm1o01comaftjo86vevi","LP-0276","Loading Point 276","cmhsbjldd00ommaftp51hua2k",,true,6,-5.072015459238822,118.7264789075502,"Seam-D","{""sulfur"":0.2851660444416261,""calorie"":4590.742739537329,""moisture"":16.11212475679125,""ash_content"":9.54639567385827}","2025-11-09T23:02:33.564Z","2025-11-09T23:02:33.564Z"
"cmhsbjm1r01cqmaft659jlzmj","LP-0277","Loading Point 277","cmhsbjlds00owmaft9j257nzv",,true,4,-2.879983377265868,117.6132947429754,"Seam-C2","{""sulfur"":0.739592002646519,""calorie"":4776.137627384476,""moisture"":8.9633718751539,""ash_content"":5.588363511640045}","2025-11-09T23:02:33.567Z","2025-11-09T23:02:33.567Z"
"cmhsbjm1s01csmaftd0x0d9gp","LP-0278","Loading Point 278","cmhsbjldv00oymaft5q3qizb9",,true,3,-3.910842251436521,118.5984693668681,"Seam-A1","{""sulfur"":0.5023885814564325,""calorie"":5892.939446945234,""moisture"":10.14084630888767,""ash_content"":9.209830595566675}","2025-11-09T23:02:33.569Z","2025-11-09T23:02:33.569Z"
"cmhsbjm1u01cumaftfg0bk33b","LP-0279","Loading Point 279","cmhsbjldw00ozmafteu2ak4gm",,false,8,-3.61529963754466,117.4508821660472,"Seam-A1","{""sulfur"":0.5097393297283808,""calorie"":4843.953802880118,""moisture"":14.21518332945758,""ash_content"":4.389606625355274}","2025-11-09T23:02:33.570Z","2025-11-09T23:02:33.570Z"
"cmhsbjm1v01cwmaftcqwebo8c","LP-0280","Loading Point 280","cmhsbjled00p7maftuqkiaz5z",,true,9,-3.743397406396702,115.6352843053083,"Seam-B1","{""sulfur"":0.2336726596900655,""calorie"":4656.955636177546,""moisture"":13.17003809627858,""ash_content"":11.62185252972379}","2025-11-09T23:02:33.572Z","2025-11-09T23:02:33.572Z"
"cmhsbjm1x01cymaftebhche3j","LP-0281","Loading Point 281","cmhsbjlek00pbmafteu42cv30",,true,7,-2.938220489077974,115.3603068744664,"Seam-D","{""sulfur"":0.644457337487767,""calorie"":5731.876934001604,""moisture"":10.68742768447298,""ash_content"":8.804073993927437}","2025-11-09T23:02:33.573Z","2025-11-09T23:02:33.573Z"
"cmhsbjm1y01d0mafth3xvb7dy","LP-0282","Loading Point 282","cmhsbjlem00pcmaft280wq111",,true,8,-3.230913750405183,119.2234238396889,"Seam-A1","{""sulfur"":0.5080480141316057,""calorie"":5610.59438129077,""moisture"":15.31114767122087,""ash_content"":9.992317392114074}","2025-11-09T23:02:33.575Z","2025-11-09T23:02:33.575Z"
"cmhsbjm2001d2maftizzmg3zf","LP-0283","Loading Point 283","cmhsbjleo00pdmafttawec34m",,true,5,-2.961491483705514,117.9508360067574,"Seam-C2","{""sulfur"":0.5540318187849723,""calorie"":5179.345002093055,""moisture"":11.31655735402411,""ash_content"":7.525790953699774}","2025-11-09T23:02:33.576Z","2025-11-09T23:02:33.576Z"
"cmhsbjm2101d4maftdgac1y5s","LP-0284","Loading Point 284","cmhsbjlev00pjmaftukn4pvyv",,true,6,-5.12037895372489,118.4761387995775,"Seam-C2","{""sulfur"":0.2315082272182439,""calorie"":4938.016331519954,""moisture"":12.06220616514349,""ash_content"":9.697418381004242}","2025-11-09T23:02:33.578Z","2025-11-09T23:02:33.578Z"
"cmhsbjm2301d6mafta4amz3zp","LP-0285","Loading Point 285","cmhsbjlew00pkmafty17etg15",,true,4,-3.933426991348005,118.9135807268051,"Seam-C2","{""sulfur"":0.4325344213363063,""calorie"":4524.289562469732,""moisture"":11.54415883059161,""ash_content"":9.97840353415974}","2025-11-09T23:02:33.579Z","2025-11-09T23:02:33.579Z"
"cmhsbjm2401d8maft8c6reqtq","LP-0286","Loading Point 286","cmhsbjlez00pmmaftzx2q9nnx",,true,3,-3.581114128321862,116.3594609894182,"Seam-D","{""sulfur"":0.3162114380256841,""calorie"":5372.675918027767,""moisture"":14.27687654141473,""ash_content"":4.481052771186148}","2025-11-09T23:02:33.581Z","2025-11-09T23:02:33.581Z"
"cmhsbjm2601damaftwqznxmk4","LP-0287","Loading Point 287","cmhsbjlf000pnmaftm5yrjp1i",,true,5,-3.359740660755635,116.2786326177901,"Seam-A1","{""sulfur"":0.3296561375101306,""calorie"":5522.454092944495,""moisture"":15.88741564267611,""ash_content"":9.714749355697412}","2025-11-09T23:02:33.583Z","2025-11-09T23:02:33.583Z"
"cmhsbjm2801dcmaftf9k2b859","LP-0288","Loading Point 288","cmhsbjlf300ppmafti77iajui",,true,6,-4.602150501225499,116.7174192162562,"Seam-D","{""sulfur"":0.4081634079759844,""calorie"":4660.847081123232,""moisture"":10.68276014000759,""ash_content"":5.071034256158274}","2025-11-09T23:02:33.584Z","2025-11-09T23:02:33.584Z"
"cmhsbjm2a01demaftj1tdbkbc","LP-0289","Loading Point 289","cmhsbjlfb00pvmaft6as9a5s8",,true,6,-4.028128335997271,116.9427363410311,"Seam-A1","{""sulfur"":0.4481559931616012,""calorie"":5130.339257648233,""moisture"":15.22475211576782,""ash_content"":11.08231217109843}","2025-11-09T23:02:33.586Z","2025-11-09T23:02:33.586Z"
"cmhsbjm2b01dgmaft46eckbij","LP-0290","Loading Point 290","cmhsbjlfd00pxmaft3bhw857w",,true,6,-3.693706604414362,119.2573115219645,"Seam-A1","{""sulfur"":0.5441727770479148,""calorie"":5047.207505693946,""moisture"":15.30799662591215,""ash_content"":11.02920880528542}","2025-11-09T23:02:33.587Z","2025-11-09T23:02:33.587Z"
"cmhsbjm2d01dimaft5x9wqpc7","LP-0291","Loading Point 291","cmhsbjlfg00pzmaftvo96adsx",,true,3,-3.56491460906919,115.7743299983876,"Seam-D","{""sulfur"":0.7695638253948205,""calorie"":4532.295874569359,""moisture"":16.12977520591516,""ash_content"":8.793198031600985}","2025-11-09T23:02:33.589Z","2025-11-09T23:02:33.589Z"
"cmhsbjm2e01dkmaftbjspmr5e","LP-0292","Loading Point 292","cmhsbjlfm00q3maftg8xhq7wp",,true,9,-2.891776729667158,119.1397387713242,"Seam-D","{""sulfur"":0.4454767337624085,""calorie"":4523.842316176051,""moisture"":17.62860495026132,""ash_content"":4.513759555933035}","2025-11-09T23:02:33.591Z","2025-11-09T23:02:33.591Z"
"cmhsbjm2g01dmmaftuvpgpnyh","LP-0293","Loading Point 293","cmhsbjlfo00q5maftkime8tvj",,true,7,-4.294531859711423,119.8006673867821,"Seam-C2","{""sulfur"":0.309908092679215,""calorie"":5827.559009282728,""moisture"":13.84191862727377,""ash_content"":6.443294979297594}","2025-11-09T23:02:33.592Z","2025-11-09T23:02:33.592Z"
"cmhsbjm2h01domaft2508pl1r","LP-0294","Loading Point 294","cmhsbjlfr00q7maftpbq22f39",,true,5,-4.950586472016272,116.7307905494129,"Seam-C2","{""sulfur"":0.7135582852095703,""calorie"":5762.626346786739,""moisture"":15.82638734296666,""ash_content"":5.74243101575256}","2025-11-09T23:02:33.593Z","2025-11-09T23:02:33.593Z"
"cmhsbjm2i01dqmaftf7kp2czr","LP-0295","Loading Point 295","cmhsbjlft00q9maftm5u5pf8x",,true,9,-4.595554035147411,116.0515526807172,"Seam-D","{""sulfur"":0.6864864969450953,""calorie"":5960.178809893954,""moisture"":16.39036389009424,""ash_content"":4.183633924527657}","2025-11-09T23:02:33.595Z","2025-11-09T23:02:33.595Z"
"cmhsbjm2k01dsmaft8cxzn96x","LP-0296","Loading Point 296","cmhsbjlfx00qcmaftooymyxot",,true,4,-3.802426842137764,119.9913338749872,"Seam-A2","{""sulfur"":0.4068151895401039,""calorie"":5064.322781164757,""moisture"":14.00706615810922,""ash_content"":10.63610130366401}","2025-11-09T23:02:33.596Z","2025-11-09T23:02:33.596Z"
"cmhsbjm2l01dumaftywcqlvnb","LP-0297","Loading Point 297","cmhsbjlfz00qdmaft567lvbm8",,true,4,-4.174888280301259,117.4112677904473,"Seam-B1","{""sulfur"":0.6903727280982066,""calorie"":4717.853746860779,""moisture"":19.28681056796862,""ash_content"":6.571776530130844}","2025-11-09T23:02:33.598Z","2025-11-09T23:02:33.598Z"
"cmhsbjm2o01dwmaftuzm47921","LP-0298","Loading Point 298","cmhsbjlg900qlmaftgtlgp2uu",,true,8,-3.79643998911899,119.5649297451686,"Seam-B1","{""sulfur"":0.3137928656405104,""calorie"":4615.835434028822,""moisture"":13.04107510707578,""ash_content"":9.534083170212117}","2025-11-09T23:02:33.600Z","2025-11-09T23:02:33.600Z"
"cmhsbjm2p01dymaftkngxb28q","LP-0299","Loading Point 299","cmhsbjlgg00qqmaftu4oeeqmo",,true,9,-4.738852725390458,117.4865339030612,"Seam-C1","{""sulfur"":0.4908999892586186,""calorie"":5582.919200641817,""moisture"":19.70137054611692,""ash_content"":7.130354321269204}","2025-11-09T23:02:33.602Z","2025-11-09T23:02:33.602Z"
"cmhsbjm2r01e0maftacaubuhp","LP-0300","Loading Point 300","cmhsbjlgi00qrmaftmox9xq91",,true,9,-3.841084250369433,116.7763321875451,"Seam-C1","{""sulfur"":0.7565693747985458,""calorie"":5588.645961828882,""moisture"":13.04897028894111,""ash_content"":8.411500521742436}","2025-11-09T23:02:33.603Z","2025-11-09T23:02:33.603Z"
"cmhsbjm2s01e2maftiau7xm2q","LP-0301","Loading Point 301","cmhsbjlgm00qumaft6z61msqq",,true,3,-3.925191257786848,119.4257338343068,"Seam-A2","{""sulfur"":0.4841436457573366,""calorie"":5881.043044416313,""moisture"":11.3404427174324,""ash_content"":8.346998565464586}","2025-11-09T23:02:33.605Z","2025-11-09T23:02:33.605Z"
"cmhsbjm2u01e4maftgomnuzy3","LP-0302","Loading Point 302","cmhsbjlgn00qvmaft1qqher0x",,true,8,-4.416577850261206,116.0906238086181,"Seam-B2","{""sulfur"":0.7047018690501046,""calorie"":4619.536922284085,""moisture"":15.70696246371889,""ash_content"":6.396530293007777}","2025-11-09T23:02:33.606Z","2025-11-09T23:02:33.606Z"
"cmhsbjm2v01e6maft6jpukvuh","LP-0303","Loading Point 303","cmhsbjlh000r4maftmudwno2f",,true,4,-2.773567249727362,115.1093136831283,"Seam-D","{""sulfur"":0.4568214814284569,""calorie"":4942.706220649915,""moisture"":10.79880999619494,""ash_content"":9.258129344261102}","2025-11-09T23:02:33.608Z","2025-11-09T23:02:33.608Z"
"cmhsbjm2x01e8maftsz0dngal","LP-0304","Loading Point 304","cmhsbjlhh00rhmaft63qi27pf",,true,8,-5.390323588027776,115.3644472090642,"Seam-B1","{""sulfur"":0.2390303963600929,""calorie"":5968.92989243231,""moisture"":13.73574445955565,""ash_content"":8.749469968480371}","2025-11-09T23:02:33.609Z","2025-11-09T23:02:33.609Z"
"cmhsbjm2y01eamaftjmqo00rj","LP-0305","Loading Point 305","cmhsbjlhy00rtmaftk6oi347s",,true,3,-4.903999122293764,117.7656275089419,"Seam-A2","{""sulfur"":0.752439815517711,""calorie"":4873.754902703023,""moisture"":8.558073064856185,""ash_content"":9.790310564799936}","2025-11-09T23:02:33.611Z","2025-11-09T23:02:33.611Z"
"cmhsbjm3001ecmaftlt8sse6h","LP-0306","Loading Point 306","cmhsbjli200rwmaftt2j5u1st",,true,6,-3.903594875750773,118.1708220311412,"Seam-A1","{""sulfur"":0.7998143825305104,""calorie"":4547.110842141265,""moisture"":12.28605226990313,""ash_content"":4.713256951197382}","2025-11-09T23:02:33.612Z","2025-11-09T23:02:33.612Z"
"cmhsbjm3101eemaft6beb0vxl","LP-0307","Loading Point 307","cmhsbjli500rymaftnjlwf83w",,true,4,-4.477040177785773,118.0037428654517,"Seam-A2","{""sulfur"":0.6838188562995366,""calorie"":5297.607841589718,""moisture"":16.13251891058311,""ash_content"":9.224991862518458}","2025-11-09T23:02:33.614Z","2025-11-09T23:02:33.614Z"
"cmhsbjm3401egmaft0x97z0nz","LP-0308","Loading Point 308","cmhsbjlib00s2maftioyoq0rf",,true,5,-4.237698381186739,116.9558062172893,"Seam-A2","{""sulfur"":0.7371735973472844,""calorie"":4862.397180745072,""moisture"":15.6461004884951,""ash_content"":11.09299269580146}","2025-11-09T23:02:33.616Z","2025-11-09T23:02:33.616Z"
"cmhsbjm3601eimaft2dum3pbh","LP-0309","Loading Point 309","cmhsbjlih00s7maftwoxpp1ot",,true,7,-4.016025400419791,116.5320186035382,"Seam-C1","{""sulfur"":0.5165315263910946,""calorie"":5563.494592728743,""moisture"":10.4569792538291,""ash_content"":6.47340624592116}","2025-11-09T23:02:33.618Z","2025-11-09T23:02:33.618Z"
